{
"type": "FeatureCollection",
"name": "obra_no_iniciada",
"crs": { "type": "name", "properties": { "name": "urn:ogc:def:crs:OGC:1.3:CRS84" } },
"features": [
{ "type": "Feature", "properties": { "N° EXPEDI": "30727029\/18", "NOMENC.PAR": "15-81-11-26", "TEL": "19\/3\/2019", "NAME": "AVENIDA SEGUROLA 3083", "TIPO DE OB": "Obra Menor", "M2.": "369,03", "ESTADO": "Obra NO Iniciada", "Trata": "MDUG0105A", "CIUDAD": "Ciudad Autonoma de Buenos Aires", "PAIS": "Argentina" }, "geometry": { "type": "Point", "coordinates": [ -58.510858979591802, -34.608404040816303 ] } },
{ "type": "Feature", "properties": { "N° EXPEDI": "14060162\/17", "NOMENC.PAR": null, "TEL": "15\/6\/2018", "NAME": "AVENIDA SEGUROLA 335", "TIPO DE OB": "Obra Media", "M2.": "1.895", "ESTADO": "Obra NO Iniciada", "Trata": "MDUG0105A", "CIUDAD": "Ciudad Autonoma de Buenos Aires", "PAIS": "Argentina" }, "geometry": { "type": "Point", "coordinates": [ -58.4861273692308, -34.630838402564102 ] } },
{ "type": "Feature", "properties": { "N° EXPEDI": "6920882\/13", "NOMENC.PAR": "18-19-99-20a", "TEL": "11\/9\/2017", "NAME": "JERONIMO SALGUERO 1631", "TIPO DE OB": "Obra Mayor", "M2.": "3.281", "ESTADO": "Obra NO Iniciada", "Trata": "MDUG0105A", "CIUDAD": "Ciudad Autonoma de Buenos Aires", "PAIS": "Argentina" }, "geometry": { "type": "Point", "coordinates": [ -58.417644192270316, -34.591082342942812 ] } },
{ "type": "Feature", "properties": { "N° EXPEDI": "26670912\/18", "NOMENC.PAR": "013-SPUYMA-SPYS-98", "TEL": "30\/4\/2019", "NAME": "GRAL.PAZ", "TIPO DE OB": "Obra Menor", "M2.": "91,5", "ESTADO": "Obra NO Iniciada", "Trata": "MDUG0122A", "CIUDAD": "Ciudad Autonoma de Buenos Aires", "PAIS": "Argentina" }, "geometry": { "type": "Point", "coordinates": [ -58.5096404, -34.6692907 ] } },
{ "type": "Feature", "properties": { "N° EXPEDI": "18599988\/14", "NOMENC.PAR": "1-38-141-1c", "TEL": "26\/7\/2018", "NAME": "CORONEL PAGOLA 4206", "TIPO DE OB": "Obra Media", "M2.": "1.564", "ESTADO": "Obra NO Iniciada", "Trata": "MDUG0105A", "CIUDAD": "Ciudad Autonoma de Buenos Aires", "PAIS": "Argentina" }, "geometry": { "type": "Point", "coordinates": [ -58.421279795918402, -34.643833285714301 ] } },
{ "type": "Feature", "properties": { "N° EXPEDI": "28288516\/18", "NOMENC.PAR": "1-38-141-003", "TEL": "11\/4\/2019", "NAME": "CORONEL PAGOLA 4262", "TIPO DE OB": "Obra Media", "M2.": "1151,07", "ESTADO": "Obra NO Iniciada", "Trata": "MDUG0105A", "CIUDAD": "Ciudad Autonoma de Buenos Aires", "PAIS": "Argentina" }, "geometry": { "type": "Point", "coordinates": [ -58.421612938775503, -34.643893285714299 ] } },
{ "type": "Feature", "properties": { "N° EXPEDI": "24936325\/18", "NOMENC.PAR": "15-79-11-14", "TEL": "20\/12\/2018", "NAME": "AVENIDA SEGUROLA 1843", "TIPO DE OB": "Obra Mayor", "M2.": "3.270", "ESTADO": "Obra NO Iniciada", "Trata": "MDUG0105A", "CIUDAD": "Ciudad Autonoma de Buenos Aires", "PAIS": "Argentina" }, "geometry": { "type": "Point", "coordinates": [ -58.500673685714297, -34.619266528571401 ] } },
{ "type": "Feature", "properties": { "N° EXPEDI": "25649472\/18", "NOMENC.PAR": "1-77-79-3a", "TEL": "15\/11\/2018", "NAME": "AVENIDA SEGUROLA 395", "TIPO DE OB": "Obra Mayor", "M2.": "3.534", "ESTADO": "Obra NO Iniciada", "Trata": "MDUG0105A", "CIUDAD": "Ciudad Autonoma de Buenos Aires", "PAIS": "Argentina" }, "geometry": { "type": "Point", "coordinates": [ -58.486662523076902, -34.6304205564103 ] } },
{ "type": "Feature", "properties": { "N° EXPEDI": "10121213\/18", "NOMENC.PAR": "08-30-42-6B", "TEL": "7\/12\/2018", "NAME": "AVENIDA PAVON 3156", "TIPO DE OB": "Micro Obra", "M2.": null, "ESTADO": "Obra NO Iniciada", "Trata": "MDUG0105A", "CIUDAD": "Ciudad Autonoma de Buenos Aires", "PAIS": "Argentina" }, "geometry": { "type": "Point", "coordinates": [ -58.409224612244898, -34.628682755101998 ] } },
{ "type": "Feature", "properties": { "N° EXPEDI": "26610502\/18", "NOMENC.PAR": "08-22-014-009", "TEL": "16\/11\/2018", "NAME": "AVENIDA PAVON 2476", "TIPO DE OB": "Obra Media", "M2.": "1.550", "ESTADO": "Obra NO Iniciada", "Trata": "MDUG0105A", "CIUDAD": "Ciudad Autonoma de Buenos Aires", "PAIS": "Argentina" }, "geometry": { "type": "Point", "coordinates": [ -58.399634877551001, -34.627371571428597 ] } },
{ "type": "Feature", "properties": { "N° EXPEDI": "27355166\/16", "NOMENC.PAR": "8-22-38-8b", "TEL": "27\/9\/2017", "NAME": "AVENIDA PAVON 2200", "TIPO DE OB": "Obra Menor", "M2.": "451", "ESTADO": "Obra NO Iniciada", "Trata": "MDUG0105A", "CIUDAD": "Ciudad Autonoma de Buenos Aires", "PAIS": "Argentina" }, "geometry": { "type": "Point", "coordinates": [ -58.395388, -34.6268324 ] } },
{ "type": "Feature", "properties": { "N° EXPEDI": "26938946\/16", "NOMENC.PAR": "16-29-41B-3a", "TEL": "1\/11\/2017", "NAME": "AVENIDA COMODORO MARTIN RIVADAVIA 2031", "TIPO DE OB": "Obra Menor", "M2.": "128", "ESTADO": "Obra NO Iniciada", "Trata": "MDUG1001B", "CIUDAD": "Ciudad Autonoma de Buenos Aires", "PAIS": "Argentina" }, "geometry": { "type": "Point", "coordinates": [ -58.465430967346897, -34.545954614285698 ] } },
{ "type": "Feature", "properties": { "N° EXPEDI": "11112673\/18", "NOMENC.PAR": "12-14-8-40\/41", "TEL": "13\/5\/2019", "NAME": "SOLIS 1025", "TIPO DE OB": "Obra Mayor", "M2.": "3100,98", "ESTADO": "Obra NO Iniciada", "Trata": "MDUG0139A", "CIUDAD": "Ciudad Autonoma de Buenos Aires", "PAIS": "Argentina" }, "geometry": { "type": "Point", "coordinates": [ -58.390236948979599, -34.620534346938797 ] } },
{ "type": "Feature", "properties": { "N° EXPEDI": "8070291\/16", "NOMENC.PAR": null, "TEL": "17\/1\/2018", "NAME": "LAVALLOL 2121", "TIPO DE OB": "Obra Menor", "M2.": "38", "ESTADO": "Obra NO Iniciada", "Trata": "MDUG0105A", "CIUDAD": "Ciudad Autonoma de Buenos Aires", "PAIS": "Argentina" }, "geometry": { "type": "Point", "coordinates": [ -58.4900308, -34.6110848 ] } },
{ "type": "Feature", "properties": { "N° EXPEDI": "13116059\/18", "NOMENC.PAR": "1-77-21-14", "TEL": "2\/1\/2018", "NAME": "AVENIDA RIVADAVIA 9201", "TIPO DE OB": "Obra Media", "M2.": "2.261", "ESTADO": "Obra NO Iniciada", "Trata": "#N\/A", "CIUDAD": "Ciudad Autonoma de Buenos Aires", "PAIS": "Argentina" }, "geometry": { "type": "Point", "coordinates": [ -58.4940982, -34.6365611 ] } },
{ "type": "Feature", "properties": { "N° EXPEDI": "30099363\/17", "NOMENC.PAR": null, "TEL": "3\/5\/2018", "NAME": "AVENIDA SAN MARTIN 2311", "TIPO DE OB": "Obra Mayor", "M2.": "5.405", "ESTADO": "Obra NO Iniciada", "Trata": "#N\/A", "CIUDAD": "Ciudad Autonoma de Buenos Aires", "PAIS": "Argentina" }, "geometry": { "type": "Point", "coordinates": [ -58.460240787755097, -34.603885763265303 ] } },
{ "type": "Feature", "properties": { "N° EXPEDI": "29327573\/17", "NOMENC.PAR": "15-59-92-4", "TEL": "16\/7\/2018", "NAME": "AVENIDA SAN MARTIN 2610", "TIPO DE OB": "Obra Menor", "M2.": "78", "ESTADO": "Obra NO Iniciada", "Trata": "MDUG0122A", "CIUDAD": "Ciudad Autonoma de Buenos Aires", "PAIS": "Argentina" }, "geometry": { "type": "Point", "coordinates": [ -58.463531284210497, -34.603308805263197 ] } },
{ "type": "Feature", "properties": { "N° EXPEDI": "16374115\/18", "NOMENC.PAR": "15-69-84-4", "TEL": "13\/9\/2018", "NAME": "AVENIDA SAN MARTIN 4152", "TIPO DE OB": "Obra Mayor", "M2.": "2.538", "ESTADO": "Obra NO Iniciada", "Trata": "MDUG0105A", "CIUDAD": "Ciudad Autonoma de Buenos Aires", "PAIS": "Argentina" }, "geometry": { "type": "Point", "coordinates": [ -58.480347930612197, -34.599174293877503 ] } },
{ "type": "Feature", "properties": { "N° EXPEDI": "301807743\/15", "NOMENC.PAR": "15-83-241-1e", "TEL": "20\/12\/2018", "NAME": "AVENIDA SAN MARTIN 6181", "TIPO DE OB": "Obra Media", "M2.": "1.390", "ESTADO": "Obra NO Iniciada", "Trata": "#N\/A", "CIUDAD": "Ciudad Autonoma de Buenos Aires", "PAIS": "Argentina" }, "geometry": { "type": "Point", "coordinates": [ -58.5024555632653, -34.5947151836735 ] } },
{ "type": "Feature", "properties": { "N° EXPEDI": "26605014\/18", "NOMENC.PAR": "1-95-59-19", "TEL": "14\/11\/2018", "NAME": "AVENIDA RIVADAVIA 9615", "TIPO DE OB": "Obra Media", "M2.": "1.872", "ESTADO": "Obra NO Iniciada", "Trata": "MDUG0105A", "CIUDAD": "Ciudad Autonoma de Buenos Aires", "PAIS": "Argentina" }, "geometry": { "type": "Point", "coordinates": [ -58.499802671428597, -34.6373488 ] } },
{ "type": "Feature", "properties": { "N° EXPEDI": "26138627\/17", "NOMENC.PAR": null, "TEL": "29\/5\/2018", "NAME": "AVENIDA BELGRANO 3211", "TIPO DE OB": "Obra Menor", "M2.": "109", "ESTADO": "Obra NO Iniciada", "Trata": "MDUG0105A", "CIUDAD": "Ciudad Autonoma de Buenos Aires", "PAIS": "Argentina" }, "geometry": { "type": "Point", "coordinates": [ -58.411418742857101, -34.6152426346939 ] } },
{ "type": "Feature", "properties": { "N° EXPEDI": "12075760\/17", "NOMENC.PAR": "9-28-29-6", "TEL": "9\/8\/2018", "NAME": "AVENIDA BELGRANO 3242", "TIPO DE OB": "Obra Menor", "M2.": "36", "ESTADO": "Obra NO Iniciada", "Trata": "MDUG0122A", "CIUDAD": "Ciudad Autonoma de Buenos Aires", "PAIS": "Argentina" }, "geometry": { "type": "Point", "coordinates": [ -58.4118108183673, -34.6154899 ] } },
{ "type": "Feature", "properties": { "N° EXPEDI": "7715005\/18", "NOMENC.PAR": "5-65-81-15a", "TEL": "9\/8\/2018", "NAME": "AVENIDA RIVADAVIA 6847", "TIPO DE OB": "Obra Menor", "M2.": "171", "ESTADO": "Obra NO Iniciada", "Trata": "MDUG0139A", "CIUDAD": "Ciudad Autonoma de Buenos Aires", "PAIS": "Argentina" }, "geometry": { "type": "Point", "coordinates": [ -58.461953608163299, -34.628516626530597 ] } },
{ "type": "Feature", "properties": { "N° EXPEDI": "33134924\/18", "NOMENC.PAR": "20-07-21-08", "TEL": "5\/4\/2019", "NAME": "AVENIDA LAS HERAS 1683", "TIPO DE OB": "Obra Mayor", "M2.": "7252,19", "ESTADO": "Obra NO Iniciada", "Trata": "MDUG0110B", "CIUDAD": "Ciudad Autonoma de Buenos Aires", "PAIS": "Argentina" }, "geometry": { "type": "Point", "coordinates": [ -58.3966939, -34.5870684 ] } },
{ "type": "Feature", "properties": { "N° EXPEDI": "28571399\/18", "NOMENC.PAR": "5-65-103-11", "TEL": "29\/11\/2018", "NAME": "AVENIDA EMILIO CASTRO 5601", "TIPO DE OB": "Obra Menor", "M2.": "349", "ESTADO": "Obra NO Iniciada", "Trata": "MDUG0105A", "CIUDAD": "Ciudad Autonoma de Buenos Aires", "PAIS": "Argentina" }, "geometry": { "type": "Point", "coordinates": [ -58.502507, -34.6457902 ] } },
{ "type": "Feature", "properties": { "N° EXPEDI": "18407032\/17", "NOMENC.PAR": "10-20-15-4C", "TEL": "11\/10\/2017", "NAME": "AVENIDA BELGRANO 2530", "TIPO DE OB": "Obra Media", "M2.": "1.984", "ESTADO": "Obra NO Iniciada", "Trata": "MDUG0139A", "CIUDAD": "Ciudad Autonoma de Buenos Aires", "PAIS": "Argentina" }, "geometry": { "type": "Point", "coordinates": [ -58.4018745, -34.6145869 ] } },
{ "type": "Feature", "properties": { "N° EXPEDI": "17528861\/18", "NOMENC.PAR": "1-60-117-15", "TEL": "31\/7\/2018", "NAME": "AVENIDA ESCALADA 228", "TIPO DE OB": "Obra Media", "M2.": "1.595", "ESTADO": "Obra NO Iniciada", "Trata": "MDUG0105A", "CIUDAD": "Ciudad Autonoma de Buenos Aires", "PAIS": "Argentina" }, "geometry": { "type": "Point", "coordinates": [ -58.4721592, -34.6635169 ] } },
{ "type": "Feature", "properties": { "N° EXPEDI": "7718714\/16", "NOMENC.PAR": "1-68-123F-4", "TEL": "6\/9\/2018", "NAME": "AVENIDA ESCALADA 4410", "TIPO DE OB": "Obra Mayor", "M2.": "5.183", "ESTADO": "Obra NO Iniciada", "Trata": "MDUG0110A", "CIUDAD": "Ciudad Autonoma de Buenos Aires", "PAIS": "Argentina" }, "geometry": { "type": "Point", "coordinates": [ -58.4721003, -34.6633612 ] } },
{ "type": "Feature", "properties": { "N° EXPEDI": "9953213\/18", "NOMENC.PAR": "1-60-54-31", "TEL": "20\/12\/2018", "NAME": "AVENIDA RIVADAVIA 10430", "TIPO DE OB": "Obra Menor", "M2.": "74", "ESTADO": "Obra NO Iniciada", "Trata": "MDUG0105A", "CIUDAD": "Ciudad Autonoma de Buenos Aires", "PAIS": "Argentina" }, "geometry": { "type": "Point", "coordinates": [ -58.510484028571398, -34.6393294 ] } },
{ "type": "Feature", "properties": { "N° EXPEDI": "7468651\/18", "NOMENC.PAR": null, "TEL": "10\/5\/2018", "NAME": "MARISCAL ANTONIO JOSE DE SUCRE 1231", "TIPO DE OB": "Obra Menor", "M2.": "105", "ESTADO": "Obra NO Iniciada", "Trata": "MDUG0122A", "CIUDAD": "Ciudad Autonoma de Buenos Aires", "PAIS": "Argentina" }, "geometry": { "type": "Point", "coordinates": [ -58.4432110183674, -34.556813087755103 ] } },
{ "type": "Feature", "properties": { "N° EXPEDI": "34800951\/18", "NOMENC.PAR": "16-.39-88-002d", "TEL": "18\/3\/2019", "NAME": "MARISCAL ANTONIO JOSE DE SUCRE 2560", "TIPO DE OB": "Obra Media", "M2.": "1446,27", "ESTADO": "Obra NO Iniciada", "Trata": "MDUG0105A", "CIUDAD": "Ciudad Autonoma de Buenos Aires", "PAIS": "Argentina" }, "geometry": { "type": "Point", "coordinates": [ -58.4565046346939, -34.564838669387797 ] } },
{ "type": "Feature", "properties": { "N° EXPEDI": "21929297\/18", "NOMENC.PAR": "16-25-102-10h", "TEL": "11\/10\/2018", "NAME": "MARISCAL ANTONIO JOSE DE SUCRE 992", "TIPO DE OB": "Obra Media", "M2.": "2.486", "ESTADO": "Obra NO Iniciada", "Trata": "MDUG0105A", "CIUDAD": "Ciudad Autonoma de Buenos Aires", "PAIS": "Argentina" }, "geometry": { "type": "Point", "coordinates": [ -58.4403363979592, -34.555244985714303 ] } },
{ "type": "Feature", "properties": { "N° EXPEDI": "7081671\/14", "NOMENC.PAR": "20-07-07-017", "TEL": "14\/1\/2019", "NAME": "AVENIDA LAS HERAS 1725", "TIPO DE OB": "Obra Mayor", "M2.": "3.890", "ESTADO": "Obra NO Iniciada", "Trata": "MDUG0122A", "CIUDAD": "Ciudad Autonoma de Buenos Aires", "PAIS": "Argentina" }, "geometry": { "type": "Point", "coordinates": [ -58.3966939, -34.5870684 ] } },
{ "type": "Feature", "properties": { "N° EXPEDI": "4589285\/18", "NOMENC.PAR": "19-11-60-13", "TEL": "21\/3\/2019", "NAME": "AVENIDA LAS HERAS 1947", "TIPO DE OB": "Obra Media", "M2.": "870,87", "ESTADO": "Obra NO Iniciada", "Trata": "MDUG0139A", "CIUDAD": "Ciudad Autonoma de Buenos Aires", "PAIS": "Argentina" }, "geometry": { "type": "Point", "coordinates": [ -58.3966939, -34.5870684 ] } },
{ "type": "Feature", "properties": { "N° EXPEDI": "12718024\/18", "NOMENC.PAR": "15-69-49-10\/11B", "TEL": "15\/8\/2018", "NAME": "BOLIVIA 2980", "TIPO DE OB": "Obra Mayor", "M2.": "4.013", "ESTADO": "Obra NO Iniciada", "Trata": "MDUG0105A", "CIUDAD": "Ciudad Autonoma de Buenos Aires", "PAIS": "Argentina" }, "geometry": { "type": "Point", "coordinates": [ -58.466195531476401, -34.62978655 ] } },
{ "type": "Feature", "properties": { "N° EXPEDI": "24893074\/17", "NOMENC.PAR": "18-21-005-002", "TEL": "27\/12\/2017", "NAME": "AVENIDA LAS HERAS 3826", "TIPO DE OB": "Obra Media", "M2.": "1.888", "ESTADO": "Obra NO Iniciada", "Trata": "MDUG0139A", "CIUDAD": "Ciudad Autonoma de Buenos Aires", "PAIS": "Argentina" }, "geometry": { "type": "Point", "coordinates": [ -58.3966939, -34.5870684 ] } },
{ "type": "Feature", "properties": { "N° EXPEDI": "23972940\/17", "NOMENC.PAR": null, "TEL": "15\/6\/2018", "NAME": "AVENIDA LAS HERAS 2670", "TIPO DE OB": "Obra Media", "M2.": "1.894", "ESTADO": "Obra NO Iniciada", "Trata": "MDUG0122A", "CIUDAD": "Ciudad Autonoma de Buenos Aires", "PAIS": "Argentina" }, "geometry": { "type": "Point", "coordinates": [ -58.3966939, -34.5870684 ] } },
{ "type": "Feature", "properties": { "N° EXPEDI": "26892635\/15", "NOMENC.PAR": null, "TEL": "30\/1\/2018", "NAME": "ZAPIOLA 2254", "TIPO DE OB": "Obra Mayor", "M2.": "5.968", "ESTADO": "Obra NO Iniciada", "Trata": "MDUG0110A", "CIUDAD": "Ciudad Autonoma de Buenos Aires", "PAIS": "Argentina" }, "geometry": { "type": "Point", "coordinates": [ -58.464549005156975, -34.564463350646392 ] } },
{ "type": "Feature", "properties": { "N° EXPEDI": "24490387\/18", "NOMENC.PAR": "17-37-126-11", "TEL": "14\/11\/2018", "NAME": "JOSE HERNANDEZ 2773", "TIPO DE OB": "Micro Obra", "M2.": null, "ESTADO": "Obra NO Iniciada", "Trata": "MDUG0105B", "CIUDAD": "Ciudad Autonoma de Buenos Aires", "PAIS": "Argentina" }, "geometry": { "type": "Point", "coordinates": [ -58.456956223572085, -34.567584508333546 ] } },
{ "type": "Feature", "properties": { "N° EXPEDI": "5953898\/18", "NOMENC.PAR": "16-39-55-10", "TEL": "26\/11\/2018", "NAME": "ZAPIOLA 2065", "TIPO DE OB": "Micro Obra", "M2.": null, "ESTADO": "Obra NO Iniciada", "Trata": "MDUG0105A", "CIUDAD": "Ciudad Autonoma de Buenos Aires", "PAIS": "Argentina" }, "geometry": { "type": "Point", "coordinates": [ -58.462854148106231, -34.566306559989357 ] } },
{ "type": "Feature", "properties": { "N° EXPEDI": "15140586\/18", "NOMENC.PAR": "3-18-60-6", "TEL": "13\/11\/2018", "NAME": "SANTO DOMINGO 2486", "TIPO DE OB": "Micro Obra", "M2.": null, "ESTADO": "Obra NO Iniciada", "Trata": "MDUG0105A", "CIUDAD": "Ciudad Autonoma de Buenos Aires", "PAIS": "Argentina" }, "geometry": { "type": "Point", "coordinates": [ -58.380491620909922, -34.652263401954464 ] } },
{ "type": "Feature", "properties": { "N° EXPEDI": "16154795\/19", "NOMENC.PAR": "16-55-22-10", "TEL": "28\/5\/2019", "NAME": "JOSE HERNANDEZ 5668", "TIPO DE OB": "Obra Menor", "M2.": "37,53", "ESTADO": "Obra NO Iniciada", "Trata": "#N\/A", "CIUDAD": "Ciudad Autonoma de Buenos Aires", "PAIS": "Argentina" }, "geometry": { "type": "Point", "coordinates": [ -58.457415138711973, -34.567990330969032 ] } },
{ "type": "Feature", "properties": { "N° EXPEDI": "15140586\/18", "NOMENC.PAR": "3-18-60-6", "TEL": "11\/4\/2019", "NAME": "SANTO DOMINGO 2486", "TIPO DE OB": "Obra Media", "M2.": "518,17", "ESTADO": "Obra NO Iniciada", "Trata": "MDUG0105A", "CIUDAD": "Ciudad Autonoma de Buenos Aires", "PAIS": "Argentina" }, "geometry": { "type": "Point", "coordinates": [ -58.380992255607978, -34.652303303238625 ] } },
{ "type": "Feature", "properties": { "N° EXPEDI": "18289071\/18", "NOMENC.PAR": "1-76-175-10", "TEL": "7\/11\/2018", "NAME": "OLIDEN 1966", "TIPO DE OB": "Micro Obra", "M2.": null, "ESTADO": "Obra NO Iniciada", "Trata": "MDUG0105A", "CIUDAD": "Ciudad Autonoma de Buenos Aires", "PAIS": "Argentina" }, "geometry": { "type": "Point", "coordinates": [ -58.499329808088042, -34.656832759858723 ] } },
{ "type": "Feature", "properties": { "N° EXPEDI": "12686420\/17", "NOMENC.PAR": null, "TEL": "26\/2\/2018", "NAME": "MANZANARES 2940", "TIPO DE OB": "Obra Media", "M2.": "779", "ESTADO": "Obra NO Iniciada", "Trata": "MDUG0139A", "CIUDAD": "Ciudad Autonoma de Buenos Aires", "PAIS": "Argentina" }, "geometry": { "type": "Point", "coordinates": [ -58.474642711218777, -34.549961160069273 ] } },
{ "type": "Feature", "properties": { "N° EXPEDI": "18289071\/18", "NOMENC.PAR": "1-76-175-10", "TEL": "17\/5\/2019", "NAME": "OLIDEN 1966", "TIPO DE OB": "Obra Menor", "M2.": "295,43", "ESTADO": "Obra NO Iniciada", "Trata": "MDUG0105A", "CIUDAD": "Ciudad Autonoma de Buenos Aires", "PAIS": "Argentina" }, "geometry": { "type": "Point", "coordinates": [ -58.499194219523957, -34.656909911310926 ] } },
{ "type": "Feature", "properties": { "N° EXPEDI": "27417258\/17", "NOMENC.PAR": "1-76-162-25C", "TEL": "26\/10\/2018", "NAME": "OLIDEN 1675", "TIPO DE OB": "Obra Menor", "M2.": "95", "ESTADO": "Obra NO Iniciada", "Trata": "MDUG0122A", "CIUDAD": "Ciudad Autonoma de Buenos Aires", "PAIS": "Argentina" }, "geometry": { "type": "Point", "coordinates": [ -58.502479634729994, -34.654169316255867 ] } },
{ "type": "Feature", "properties": { "N° EXPEDI": "30890099\/18", "NOMENC.PAR": "16-27-120-11a", "TEL": "18\/3\/2019", "NAME": "ENRIQUE PRINS 1481", "TIPO DE OB": "Obra Media", "M2.": "1371.85", "ESTADO": "Obra NO Iniciada", "Trata": "MDUG0105A", "CIUDAD": "Ciudad Autonoma de Buenos Aires", "PAIS": "Argentina" }, "geometry": { "type": "Point", "coordinates": [ -58.453508893877498, -34.549282732653097 ] } },
{ "type": "Feature", "properties": { "N° EXPEDI": "2241962\/18", "NOMENC.PAR": "15-85-66-16D", "TEL": "27\/3\/2019", "NAME": "REMEDIOS DE ESCALADA DE SAN MARTIN 4725", "TIPO DE OB": "Obra Media", "M2.": "1025.42", "ESTADO": "Obra NO Iniciada", "Trata": "MDUG0139A", "CIUDAD": "Ciudad Autonoma de Buenos Aires", "PAIS": "Argentina" }, "geometry": { "type": "Point", "coordinates": [ -58.496856142857098, -34.6277371428571 ] } },
{ "type": "Feature", "properties": { "N° EXPEDI": "165801\/16", "NOMENC.PAR": "1-68-118-1a 1b 2", "TEL": "6\/9\/2017", "NAME": "AVENIDA CORONEL ROCA 4635", "TIPO DE OB": "Obra Mayor", "M2.": "3846", "ESTADO": "Obra NO Iniciada", "Trata": "MDUG0110A", "CIUDAD": "Ciudad Autonoma de Buenos Aires", "PAIS": "Argentina" }, "geometry": { "type": "Point", "coordinates": [ -58.4514739737374, -34.680689145454501 ] } },
{ "type": "Feature", "properties": { "N° EXPEDI": "21928192\/18", "NOMENC.PAR": "8-22-18-2B", "TEL": "12\/3\/2019", "NAME": "HUMBERTO I 2450", "TIPO DE OB": "Obra Media", "M2.": "2143.99", "ESTADO": "Obra NO Iniciada", "Trata": "MDUG0110B", "CIUDAD": "Ciudad Autonoma de Buenos Aires", "PAIS": "Argentina" }, "geometry": { "type": "Point", "coordinates": [ -58.4000877530612, -34.622216379591798 ] } },
{ "type": "Feature", "properties": { "N° EXPEDI": "29849662\/17", "NOMENC.PAR": "3-18-13-9a", "TEL": "23\/11\/2018", "NAME": "AVENIDA VELEZ SARSFIELD 712", "TIPO DE OB": "Obra Mayor", "M2.": "3.947", "ESTADO": "Obra NO Iniciada", "Trata": "MDUG0110B", "CIUDAD": "Ciudad Autonoma de Buenos Aires", "PAIS": "Argentina" }, "geometry": { "type": "Point", "coordinates": [ -58.389526551020403, -34.643141918367299 ] } },
{ "type": "Feature", "properties": { "N° EXPEDI": "16028236\/18", "NOMENC.PAR": "02-32-10-19b", "TEL": "10\/4\/2019", "NAME": "ANDRES FERREYRA 3749", "TIPO DE OB": "Obra Media", "M2.": "1840,76", "ESTADO": "Obra NO Iniciada", "Trata": "MDUG0110B", "CIUDAD": "Ciudad Autonoma de Buenos Aires", "PAIS": "Argentina" }, "geometry": { "type": "Point", "coordinates": [ -58.4151704, -34.6443346 ] } },
{ "type": "Feature", "properties": { "N° EXPEDI": "20126935\/18", "NOMENC.PAR": "16-27-139-11a", "TEL": "16\/4\/2019", "NAME": "AVENIDA PRESIDENTE FIGUEROA ALCORTA 7786", "TIPO DE OB": "Obra Menor", "M2.": "56,27", "ESTADO": "Obra NO Iniciada", "Trata": "MDUG0122A", "CIUDAD": "Ciudad Autonoma de Buenos Aires", "PAIS": "Argentina" }, "geometry": { "type": "Point", "coordinates": [ -58.4519428125, -34.546511637499997 ] } },
{ "type": "Feature", "properties": { "N° EXPEDI": "11596777\/18", "NOMENC.PAR": "16-53-5-4", "TEL": "22\/4\/2019", "NAME": "TOMAS A. LE BRETON 4936", "TIPO DE OB": "Micro Obra", "M2.": null, "ESTADO": "Obra NO Iniciada", "Trata": "MDUG0139A", "CIUDAD": "Ciudad Autonoma de Buenos Aires", "PAIS": "Argentina" }, "geometry": { "type": "Point", "coordinates": [ -58.487687346938799, -34.569646612244902 ] } },
{ "type": "Feature", "properties": { "N° EXPEDI": "10624446\/19", "NOMENC.PAR": "17-037-072-016", "TEL": "30\/5\/2019", "NAME": "CAPITAN GENERAL RAMON FREIRE 988", "TIPO DE OB": "Obra Menor", "M2.": "95,7", "ESTADO": "Obra NO Iniciada", "Trata": "#N\/A", "CIUDAD": "Ciudad Autonoma de Buenos Aires", "PAIS": "Argentina" }, "geometry": { "type": "Point", "coordinates": [ -58.452407959183702, -34.575497530612203 ] } },
{ "type": "Feature", "properties": { "N° EXPEDI": "33410369\/18", "NOMENC.PAR": "16-39-50-26\/27", "TEL": "28\/2\/2019", "NAME": "CAPITAN GENERAL RAMON FREIRE 2211", "TIPO DE OB": "Obra Mayor", "M2.": "3.841", "ESTADO": "Obra NO Iniciada", "Trata": "MDUG0105A", "CIUDAD": "Ciudad Autonoma de Buenos Aires", "PAIS": "Argentina" }, "geometry": { "type": "Point", "coordinates": [ -58.465247367346898, -34.565406795918399 ] } },
{ "type": "Feature", "properties": { "N° EXPEDI": "24416071\/18", "NOMENC.PAR": "17-37-076-11", "TEL": "26\/2\/2019", "NAME": "VIRREY OLAGUER Y FELIU 3136", "TIPO DE OB": "Obra Media", "M2.": "661", "ESTADO": "Obra NO Iniciada", "Trata": "MDUG0105A", "CIUDAD": "Ciudad Autonoma de Buenos Aires", "PAIS": "Argentina" }, "geometry": { "type": "Point", "coordinates": [ -58.457049795918401, -34.573530632653103 ] } },
{ "type": "Feature", "properties": { "N° EXPEDI": "30152607\/17", "NOMENC.PAR": null, "TEL": "28\/2\/2018", "NAME": "ACASSUSO 7544", "TIPO DE OB": "Obra Menor", "M2.": "145", "ESTADO": "Obra NO Iniciada", "Trata": "MDUG0122A", "CIUDAD": "Ciudad Autonoma de Buenos Aires", "PAIS": "Argentina" }, "geometry": { "type": "Point", "coordinates": [ -58.521491179591798, -34.656764563265298 ] } },
{ "type": "Feature", "properties": { "N° EXPEDI": "27482072\/18", "NOMENC.PAR": "5-48-124-23", "TEL": "20\/12\/2018", "NAME": "CORONEL ESTEBAN BONORINO 169", "TIPO DE OB": "Obra Media", "M2.": "2.048", "ESTADO": "Obra NO Iniciada", "Trata": "MDUG0105A", "CIUDAD": "Ciudad Autonoma de Buenos Aires", "PAIS": "Argentina" }, "geometry": { "type": "Point", "coordinates": [ -58.427993, -34.6578084 ] } },
{ "type": "Feature", "properties": { "N° EXPEDI": "29455478\/18", "NOMENC.PAR": "5-42-52-35", "TEL": "28\/11\/2018", "NAME": "AVENIDA JUAN BAUTISTA ALBERDI 1543", "TIPO DE OB": "Obra Mayor", "M2.": "2.833", "ESTADO": "Obra NO Iniciada", "Trata": "MDUG0105A", "CIUDAD": "Ciudad Autonoma de Buenos Aires", "PAIS": "Argentina" }, "geometry": { "type": "Point", "coordinates": [ -58.449958468427901, -34.626347106367596 ] } },
{ "type": "Feature", "properties": { "N° EXPEDI": "30183997\/18", "NOMENC.PAR": "20-3-58-001", "TEL": "23\/11\/2018", "NAME": "AVENIDA LEANDRO N. ALEM 852", "TIPO DE OB": "Obra Media", "M2.": "830", "ESTADO": "Obra NO Iniciada", "Trata": "MDUG0139A", "CIUDAD": "Ciudad Autonoma de Buenos Aires", "PAIS": "Argentina" }, "geometry": { "type": "Point", "coordinates": [ -58.3719645, -34.5975701 ] } },
{ "type": "Feature", "properties": { "N° EXPEDI": "19863330\/18", "NOMENC.PAR": "16-43-86-11", "TEL": "7\/11\/2018", "NAME": "CAPITAN GENERAL RAMON FREIRE 4393", "TIPO DE OB": "Obra Menor", "M2.": "211", "ESTADO": "Obra NO Iniciada", "Trata": "MDUG0122A", "CIUDAD": "Ciudad Autonoma de Buenos Aires", "PAIS": "Argentina" }, "geometry": { "type": "Point", "coordinates": [ -58.480671448979599, -34.547006081632702 ] } },
{ "type": "Feature", "properties": { "N° EXPEDI": "30994764\/18", "NOMENC.PAR": "15-47-168-32A", "TEL": "11\/12\/2018", "NAME": "TENIENTE GENERAL EUSTAQUIO FRIAS 166", "TIPO DE OB": "Micro Obra", "M2.": null, "ESTADO": "Obra NO Iniciada", "Trata": "MDUG0105A", "CIUDAD": "Ciudad Autonoma de Buenos Aires", "PAIS": "Argentina" }, "geometry": { "type": "Point", "coordinates": [ -58.436195840816303, -34.603310165306098 ] } },
{ "type": "Feature", "properties": { "N° EXPEDI": "30994764\/18", "NOMENC.PAR": "15-47-168-32A", "TEL": "6\/3\/2019", "NAME": "TENIENTE GENERAL EUSTAQUIO FRIAS 166", "TIPO DE OB": "Obra Mayor", "M2.": "4348,84", "ESTADO": "Obra NO Iniciada", "Trata": "MDUG0105A", "CIUDAD": "Ciudad Autonoma de Buenos Aires", "PAIS": "Argentina" }, "geometry": { "type": "Point", "coordinates": [ -58.436195840816303, -34.603310165306098 ] } },
{ "type": "Feature", "properties": { "N° EXPEDI": "19998259\/18", "NOMENC.PAR": "039-47A-000", "TEL": "16\/8\/2018", "NAME": "CAPITAN GENERAL RAMON FREIRE 1901", "TIPO DE OB": "Obra Menor", "M2.": "100", "ESTADO": "Obra NO Iniciada", "Trata": "MDUG0122A", "CIUDAD": "Ciudad Autonoma de Buenos Aires", "PAIS": "Argentina" }, "geometry": { "type": "Point", "coordinates": [ -58.4627113, -34.5683322 ] } },
{ "type": "Feature", "properties": { "N° EXPEDI": "2950273\/16", "NOMENC.PAR": "17-33-16-23", "TEL": "18\/12\/2017", "NAME": "GENERAL JUAN G. LEMOS 245", "TIPO DE OB": "Obra Media", "M2.": "728", "ESTADO": "Obra NO Iniciada", "Trata": "MDUG0105A", "CIUDAD": "Ciudad Autonoma de Buenos Aires", "PAIS": "Argentina" }, "geometry": { "type": "Point", "coordinates": [ -58.448985216326498, -34.588509730612202 ] } },
{ "type": "Feature", "properties": { "N° EXPEDI": "22677026\/18", "NOMENC.PAR": "17-33-9B-13\/14", "TEL": "19\/9\/2018", "NAME": "GENERAL JUAN G. LEMOS 332", "TIPO DE OB": "Obra Mayor", "M2.": "2.970", "ESTADO": "Obra NO Iniciada", "Trata": "MDUG0105A", "CIUDAD": "Ciudad Autonoma de Buenos Aires", "PAIS": "Argentina" }, "geometry": { "type": "Point", "coordinates": [ -58.450059369387802, -34.588234320408198 ] } },
{ "type": "Feature", "properties": { "N° EXPEDI": "30136933\/17", "NOMENC.PAR": "16-63-34-23C", "TEL": "8\/8\/2018", "NAME": "TOMAS A. LE BRETON 5763", "TIPO DE OB": "Obra Media", "M2.": "1.233", "ESTADO": "Obra NO Iniciada", "Trata": "MDUG0105A", "CIUDAD": "Ciudad Autonoma de Buenos Aires", "PAIS": "Argentina" }, "geometry": { "type": "Point", "coordinates": [ -58.497223285714298, -34.574649571428601 ] } },
{ "type": "Feature", "properties": { "N° EXPEDI": "34937598\/18", "NOMENC.PAR": "1-74-12A-8", "TEL": "26\/2\/2019", "NAME": "ACASSUSO 7544", "TIPO DE OB": "Obra Menor", "M2.": "63", "ESTADO": "Obra NO Iniciada", "Trata": "MDUG0139A", "CIUDAD": "Ciudad Autonoma de Buenos Aires", "PAIS": "Argentina" }, "geometry": { "type": "Point", "coordinates": [ -58.521491179591798, -34.656764563265298 ] } },
{ "type": "Feature", "properties": { "N° EXPEDI": "29989659\/17", "NOMENC.PAR": "15-85-38c", "TEL": "15\/1\/2019", "NAME": "BOLIVIA 5870", "TIPO DE OB": "Obra Menor", "M2.": "166", "ESTADO": "Obra NO Iniciada", "Trata": "MDUG0110B", "CIUDAD": "Ciudad Autonoma de Buenos Aires", "PAIS": "Argentina" }, "geometry": { "type": "Point", "coordinates": [ -58.507261304081602, -34.575037810204101 ] } },
{ "type": "Feature", "properties": { "N° EXPEDI": "25439321\/18", "NOMENC.PAR": "16-63-65.21", "TEL": "7\/1\/2019", "NAME": "DOCTOR PEDRO IGNACIO RIVERA 5535", "TIPO DE OB": "Obra Media", "M2.": "1390", "ESTADO": "Obra NO Iniciada", "Trata": "#N\/A", "CIUDAD": "Ciudad Autonoma de Buenos Aires", "PAIS": "Argentina" }, "geometry": { "type": "Point", "coordinates": [ -58.493350653061199, -34.574691510204097 ] } },
{ "type": "Feature", "properties": { "N° EXPEDI": "18113147\/18", "NOMENC.PAR": "2-24-66-24", "TEL": "12\/10\/2018", "NAME": "15 DE NOVIEMBRE DE 1889 2573", "TIPO DE OB": "Micro Obra", "M2.": null, "ESTADO": "Obra NO Iniciada", "Trata": "MDUG0139A", "CIUDAD": "Ciudad Autonoma de Buenos Aires", "PAIS": "Argentina" }, "geometry": { "type": "Point", "coordinates": [ -58.399273571428601, -34.633544448979599 ] } },
{ "type": "Feature", "properties": { "N° EXPEDI": "20193020\/17", "NOMENC.PAR": null, "TEL": "20\/4\/2018", "NAME": "BOLIVIA 5243", "TIPO DE OB": "Obra Media", "M2.": "1046", "ESTADO": "Obra NO Iniciada", "Trata": "MDUG0122A", "CIUDAD": "Ciudad Autonoma de Buenos Aires", "PAIS": "Argentina" }, "geometry": { "type": "Point", "coordinates": [ -58.5027028, -34.579739628571403 ] } },
{ "type": "Feature", "properties": { "N° EXPEDI": "10856572\/18", "NOMENC.PAR": "16-41-81-11a", "TEL": "29\/8\/2018", "NAME": "CAPITAN GENERAL RAMON FREIRE 3445", "TIPO DE OB": "Obra Menor", "M2.": "31", "ESTADO": "Obra NO Iniciada", "Trata": "MDUG0139A", "CIUDAD": "Ciudad Autonoma de Buenos Aires", "PAIS": "Argentina" }, "geometry": { "type": "Point", "coordinates": [ -58.474706061224502, -34.554793836734703 ] } },
{ "type": "Feature", "properties": { "N° EXPEDI": "12775249\/18", "NOMENC.PAR": "15-83-253A-08", "TEL": "14\/8\/2018", "NAME": "JOSE LEON CABEZON 3246", "TIPO DE OB": "Obra Menor", "M2.": "89", "ESTADO": "Obra NO Iniciada", "Trata": "MDUG0122A", "CIUDAD": "Ciudad Autonoma de Buenos Aires", "PAIS": "Argentina" }, "geometry": { "type": "Point", "coordinates": [ -58.509641416666703, -34.5858098333333 ] } },
{ "type": "Feature", "properties": { "N° EXPEDI": "26973645\/15", "NOMENC.PAR": "15-85-50-05", "TEL": "10\/8\/2018", "NAME": "JUAN AGUSTIN GARCIA 4838", "TIPO DE OB": "Obra Menor", "M2.": "177", "ESTADO": "Obra NO Iniciada", "Trata": "MDUG1001B", "CIUDAD": "Ciudad Autonoma de Buenos Aires", "PAIS": "Argentina" }, "geometry": { "type": "Point", "coordinates": [ -58.501966242857101, -34.6233544938775 ] } },
{ "type": "Feature", "properties": { "N° EXPEDI": "35965279\/15", "NOMENC.PAR": null, "TEL": "31\/5\/2018", "NAME": "AVENIDA BOYACA 7", "TIPO DE OB": "Obra Media", "M2.": "907", "ESTADO": "Obra NO Iniciada", "Trata": "MDUG1001B", "CIUDAD": "Ciudad Autonoma de Buenos Aires", "PAIS": "Argentina" }, "geometry": { "type": "Point", "coordinates": [ -58.4566701918367, -34.626430271428603 ] } },
{ "type": "Feature", "properties": { "N° EXPEDI": "23719703\/17", "NOMENC.PAR": "1-82-116-25", "TEL": "6\/8\/2018", "NAME": "AVENIDA GENERAL FRANCISCO FERNANDEZ DE LA CRUZ 5565", "TIPO DE OB": "Obra Menor", "M2.": "476", "ESTADO": "Obra NO Iniciada", "Trata": "MDUG0105A", "CIUDAD": "Ciudad Autonoma de Buenos Aires", "PAIS": "Argentina" }, "geometry": { "type": "Point", "coordinates": [ -58.4656732, -34.6794288 ] } },
{ "type": "Feature", "properties": { "N° EXPEDI": "24783202\/18", "NOMENC.PAR": "05-65-065-019N", "TEL": "2\/1\/2019", "NAME": "GENERAL JOSE GERVASIO ARTIGAS 562", "TIPO DE OB": "Obra Media", "M2.": "1692", "ESTADO": "Obra NO Iniciada", "Trata": "#N\/A", "CIUDAD": "Ciudad Autonoma de Buenos Aires", "PAIS": "Argentina" }, "geometry": { "type": "Point", "coordinates": [ -58.466515824489797, -34.623955579591801 ] } },
{ "type": "Feature", "properties": { "N° EXPEDI": "17197453\/17", "NOMENC.PAR": null, "TEL": "10\/1\/2018", "NAME": "SAN JOSE DE CALASANZ 219", "TIPO DE OB": "Obra Mayor", "M2.": "2958", "ESTADO": "Obra NO Iniciada", "Trata": "MDUG0139A", "CIUDAD": "Ciudad Autonoma de Buenos Aires", "PAIS": "Argentina" }, "geometry": { "type": "Point", "coordinates": [ -58.438296367346901, -34.6218814489796 ] } },
{ "type": "Feature", "properties": { "N° EXPEDI": "19556787\/18", "NOMENC.PAR": "15-49-58-32", "TEL": "30\/8\/2018", "NAME": "AVENIDA DE LOS INCAS 4255", "TIPO DE OB": "Micro Obra", "M2.": "5", "ESTADO": "Obra NO Iniciada", "Trata": "MDUG0122A", "CIUDAD": "Ciudad Autonoma de Buenos Aires", "PAIS": "Argentina" }, "geometry": { "type": "Point", "coordinates": [ -58.471564659183699, -34.579577475510199 ] } },
{ "type": "Feature", "properties": { "N° EXPEDI": "10047223\/18", "NOMENC.PAR": null, "TEL": "12\/6\/2018", "NAME": "CORONEL RAMON LORENZO FALCON 5060", "TIPO DE OB": "Obra Mayor", "M2.": "3909", "ESTADO": "Obra NO Iniciada", "Trata": "MDUG0105A", "CIUDAD": "Ciudad Autonoma de Buenos Aires", "PAIS": "Argentina" }, "geometry": { "type": "Point", "coordinates": [ -58.4985772244898, -34.638727510204099 ] } },
{ "type": "Feature", "properties": { "N° EXPEDI": "8462668\/18", "NOMENC.PAR": null, "TEL": "11\/6\/2018", "NAME": "OLEGARIO VICTOR ANDRADE 353", "TIPO DE OB": "Obra Mayor", "M2.": "29981", "ESTADO": "Obra NO Iniciada", "Trata": "MDUG0110B", "CIUDAD": "Ciudad Autonoma de Buenos Aires", "PAIS": "Argentina" }, "geometry": { "type": "Point", "coordinates": [ -58.3920631, -34.5871727 ] } },
{ "type": "Feature", "properties": { "N° EXPEDI": "11327180\/17", "NOMENC.PAR": null, "TEL": "6\/6\/2018", "NAME": "RIOBAMBA 879", "TIPO DE OB": "Obra Media", "M2.": "852", "ESTADO": "Obra NO Iniciada", "Trata": "MDUG0122A", "CIUDAD": "Ciudad Autonoma de Buenos Aires", "PAIS": "Argentina" }, "geometry": { "type": "Point", "coordinates": [ -58.394399863265299, -34.598989102040797 ] } },
{ "type": "Feature", "properties": { "N° EXPEDI": "633947\/17", "NOMENC.PAR": null, "TEL": "14\/5\/2018", "NAME": "AVENIDA GENERAL EUGENIO GARZON 6050", "TIPO DE OB": "Obra Menor", "M2.": "105", "ESTADO": "Obra NO Iniciada", "Trata": "MDUG0122A", "CIUDAD": "Ciudad Autonoma de Buenos Aires", "PAIS": "Argentina" }, "geometry": { "type": "Point", "coordinates": [ -58.495887265306102, -34.660551857142899 ] } },
{ "type": "Feature", "properties": { "N° EXPEDI": "6030975\/16", "NOMENC.PAR": null, "TEL": "20\/4\/2018", "NAME": "AVENIDA GENERAL EUGENIO GARZON 3631", "TIPO DE OB": "Obra Menor", "M2.": "194", "ESTADO": "Obra NO Iniciada", "Trata": "MDUG0122A", "CIUDAD": "Ciudad Autonoma de Buenos Aires", "PAIS": "Argentina" }, "geometry": { "type": "Point", "coordinates": [ -58.4955716, -34.6599937 ] } },
{ "type": "Feature", "properties": { "N° EXPEDI": "394264499\/15", "NOMENC.PAR": null, "TEL": "10\/1\/2018", "NAME": "RODOLFO LUCHTER SUR 7463", "TIPO DE OB": "Obra Media", "M2.": "682", "ESTADO": "Obra NO Iniciada", "Trata": "#N\/A", "CIUDAD": "Ciudad Autonoma de Buenos Aires", "PAIS": "Argentina" }, "geometry": { "type": "Point", "coordinates": [ -58.5277201, -34.6466901 ] } },
{ "type": "Feature", "properties": { "N° EXPEDI": "22003615\/17", "NOMENC.PAR": null, "TEL": "4\/1\/2018", "NAME": "CORONEL RAMON LORENZO FALCON 2379", "TIPO DE OB": "Obra Mayor", "M2.": "5646", "ESTADO": "Obra NO Iniciada", "Trata": "MDUG0139A", "CIUDAD": "Ciudad Autonoma de Buenos Aires", "PAIS": "Argentina" }, "geometry": { "type": "Point", "coordinates": [ -58.461856740816302, -34.629900555101997 ] } },
{ "type": "Feature", "properties": { "N° EXPEDI": "32776989\/17", "NOMENC.PAR": "06-40-030-018", "TEL": "27\/10\/2017", "NAME": "AVENIDA DEL BARCO CENTENERA 738", "TIPO DE OB": "Obra Mayor", "M2.": "2585", "ESTADO": "Obra NO Iniciada", "Trata": "#N\/A", "CIUDAD": "Ciudad Autonoma de Buenos Aires", "PAIS": "Argentina" }, "geometry": { "type": "Point", "coordinates": [ -58.4311004, -34.6459092 ] } },
{ "type": "Feature", "properties": { "N° EXPEDI": "11796241\/17", "NOMENC.PAR": "1-60-77-4g", "TEL": "25\/10\/2017", "NAME": "CORONEL RAMON LORENZO FALCON 5743", "TIPO DE OB": "Obra Mayor", "M2.": "7874", "ESTADO": "Obra NO Iniciada", "Trata": "MDUG0139A", "CIUDAD": "Ciudad Autonoma de Buenos Aires", "PAIS": "Argentina" }, "geometry": { "type": "Point", "coordinates": [ -58.5077424, -34.639574342857102 ] } },
{ "type": "Feature", "properties": { "N° EXPEDI": "17581436\/17", "NOMENC.PAR": "02-26-14-00", "TEL": "3\/10\/2017", "NAME": "AVENIDA AMANCIO ALCORTA 2602", "TIPO DE OB": "Obra Mayor", "M2.": "2874", "ESTADO": "Obra NO Iniciada", "Trata": "MDUG0122A", "CIUDAD": "Ciudad Autonoma de Buenos Aires", "PAIS": "Argentina" }, "geometry": { "type": "Point", "coordinates": [ -58.397815, -34.643479 ] } },
{ "type": "Feature", "properties": { "N° EXPEDI": "46747265\/18", "NOMENC.PAR": "18-19-145-28A", "TEL": "28\/11\/2018", "NAME": "FRAY JUSTO SANTA MARIA DE ORO 2260", "TIPO DE OB": "Obra Media", "M2.": "2387", "ESTADO": "Obra NO Iniciada", "Trata": "#N\/A", "CIUDAD": "Ciudad Autonoma de Buenos Aires", "PAIS": "Argentina" }, "geometry": { "type": "Point", "coordinates": [ -58.426748434782603, -34.581756652173901 ] } },
{ "type": "Feature", "properties": { "N° EXPEDI": "21970790\/16", "NOMENC.PAR": "17-35-99-41", "TEL": "27\/2\/2019", "NAME": "HUMBOLDT 2284\/86", "TIPO DE OB": "Obra Media", "M2.": "1.498", "ESTADO": "Obra NO Iniciada", "Trata": "MDUG0110B", "CIUDAD": "Ciudad Autonoma de Buenos Aires", "PAIS": "Argentina" }, "geometry": { "type": "Point", "coordinates": [ -58.430319918367303, -34.5803032653061 ] } },
{ "type": "Feature", "properties": { "N° EXPEDI": "20618220\/18", "NOMENC.PAR": "17-33-057-04", "TEL": "27\/2\/2019", "NAME": "CORDOBA 5754\/58", "TIPO DE OB": "Obra Mayor", "M2.": "2.551", "ESTADO": "Obra NO Iniciada", "Trata": "MDUG0105A", "CIUDAD": "Ciudad Autonoma de Buenos Aires", "PAIS": "Argentina" }, "geometry": { "type": "Point", "coordinates": [ -58.441922537478881, -34.586496619038975 ] } },
{ "type": "Feature", "properties": { "N° EXPEDI": "34363478\/18", "NOMENC.PAR": "15-47-137-17\/18", "TEL": "27\/2\/2019", "NAME": "MURILLO 945\/49", "TIPO DE OB": "Obra Mayor", "M2.": "3.241", "ESTADO": "Obra NO Iniciada", "Trata": "MDUG0105A", "CIUDAD": "Ciudad Autonoma de Buenos Aires", "PAIS": "Argentina" }, "geometry": { "type": "Point", "coordinates": [ -58.446047893877498, -34.598415081632702 ] } },
{ "type": "Feature", "properties": { "N° EXPEDI": "31824086\/18", "NOMENC.PAR": "15-47-94-15", "TEL": "27\/2\/2019", "NAME": "HIDALGO 1637\/39", "TIPO DE OB": "Micro Obra", "M2.": null, "ESTADO": "Obra NO Iniciada", "Trata": "MDUG0139A", "CIUDAD": "Ciudad Autonoma de Buenos Aires", "PAIS": "Argentina" }, "geometry": { "type": "Point", "coordinates": [ -58.445148571428597, -34.602519469387801 ] } },
{ "type": "Feature", "properties": { "N° EXPEDI": "2633103\/18", "NOMENC.PAR": "15-033-084-006", "TEL": "26\/2\/2019", "NAME": "AREVALO 1467", "TIPO DE OB": "Obra Menor", "M2.": "267", "ESTADO": "Obra NO Iniciada", "Trata": "#N\/A", "CIUDAD": "Ciudad Autonoma de Buenos Aires", "PAIS": "Argentina" }, "geometry": { "type": "Point", "coordinates": [ -58.442672510204098, -34.583085122448999 ] } },
{ "type": "Feature", "properties": { "N° EXPEDI": "30450215\/18", "NOMENC.PAR": "2-32-76-1", "TEL": "26\/2\/2019", "NAME": "INCLAN 3202", "TIPO DE OB": "Obra Media", "M2.": "629", "ESTADO": "Obra NO Iniciada", "Trata": "MDUG0105A", "CIUDAD": "Ciudad Autonoma de Buenos Aires", "PAIS": "Argentina" }, "geometry": { "type": "Point", "coordinates": [ -58.409843, -34.631381 ] } },
{ "type": "Feature", "properties": { "N° EXPEDI": "29093054\/18", "NOMENC.PAR": "1-5-96B-51", "TEL": "26\/2\/2019", "NAME": "EVA PERON 4281", "TIPO DE OB": "Obra Media", "M2.": "738", "ESTADO": "Obra NO Iniciada", "Trata": "MDUG0122A", "CIUDAD": "Ciudad Autonoma de Buenos Aires", "PAIS": "Argentina" }, "geometry": { "type": "Point", "coordinates": [ -58.5083641, -34.6264793 ] } },
{ "type": "Feature", "properties": { "N° EXPEDI": "32719825\/18", "NOMENC.PAR": "1-77-138-011", "TEL": "26\/2\/2019", "NAME": "CONCORDIA 77", "TIPO DE OB": "Obra Media", "M2.": "793", "ESTADO": "Obra NO Iniciada", "Trata": "MDUG0105A", "CIUDAD": "Ciudad Autonoma de Buenos Aires", "PAIS": "Argentina" }, "geometry": { "type": "Point", "coordinates": [ -58.476035459183699, -34.631359934693897 ] } },
{ "type": "Feature", "properties": { "N° EXPEDI": "24259036\/16", "NOMENC.PAR": "01-38-164-23", "TEL": "23\/10\/2017", "NAME": "33 ORIENTALES 1923", "TIPO DE OB": "Obra Menor", "M2.": "266", "ESTADO": "Obra NO Iniciada", "Trata": "MDUG1001B", "CIUDAD": "Ciudad Autonoma de Buenos Aires", "PAIS": "Argentina" }, "geometry": { "type": "Point", "coordinates": [ -58.4192432, -34.6393717 ] } },
{ "type": "Feature", "properties": { "N° EXPEDI": "30985762\/18", "NOMENC.PAR": "15-061-083-038", "TEL": "22\/2\/2019", "NAME": "TRIUNVIRATO 3716", "TIPO DE OB": "Obra Menor", "M2.": "323", "ESTADO": "Obra NO Iniciada", "Trata": "MDUG0139A", "CIUDAD": "Ciudad Autonoma de Buenos Aires", "PAIS": "Argentina" }, "geometry": { "type": "Point", "coordinates": [ -58.474162333333297, -34.581660437499998 ] } },
{ "type": "Feature", "properties": { "N° EXPEDI": "34118766\/18", "NOMENC.PAR": "1-46-149-16", "TEL": "22\/2\/2019", "NAME": "CONDOR 1550", "TIPO DE OB": "Obra Menor", "M2.": "414", "ESTADO": "Obra NO Iniciada", "Trata": "MDUG0122A", "CIUDAD": "Ciudad Autonoma de Buenos Aires", "PAIS": "Argentina" }, "geometry": { "type": "Point", "coordinates": [ -58.424591955102002, -34.653350097959198 ] } },
{ "type": "Feature", "properties": { "N° EXPEDI": "33358407\/18", "NOMENC.PAR": "6-40-67-07", "TEL": "22\/2\/2019", "NAME": "J. BONIFACIO 542", "TIPO DE OB": "Obra Media", "M2.": "567", "ESTADO": "Obra NO Iniciada", "Trata": "MDUG0122A", "CIUDAD": "Ciudad Autonoma de Buenos Aires", "PAIS": "Argentina" }, "geometry": { "type": "Point", "coordinates": [ -58.4449592, -34.6283539 ] } },
{ "type": "Feature", "properties": { "N° EXPEDI": "21427826\/18", "NOMENC.PAR": "7-45-116-2", "TEL": "22\/2\/2019", "NAME": "OTAMENDI 250", "TIPO DE OB": "Obra Media", "M2.": "904", "ESTADO": "Obra NO Iniciada", "Trata": "MDUG0105A", "CIUDAD": "Ciudad Autonoma de Buenos Aires", "PAIS": "Argentina" }, "geometry": { "type": "Point", "coordinates": [ -58.4325952, -34.6138172 ] } },
{ "type": "Feature", "properties": { "N° EXPEDI": "22436907\/18", "NOMENC.PAR": "5-48-34-9", "TEL": "22\/2\/2019", "NAME": "J. BONIFACIO 2974", "TIPO DE OB": "Obra Media", "M2.": "1.116", "ESTADO": "Obra NO Iniciada", "Trata": "MDUG0105A", "CIUDAD": "Ciudad Autonoma de Buenos Aires", "PAIS": "Argentina" }, "geometry": { "type": "Point", "coordinates": [ -58.4449592, -34.6283539 ] } },
{ "type": "Feature", "properties": { "N° EXPEDI": "5934889\/18", "NOMENC.PAR": "5-65-61-9", "TEL": "22\/2\/2019", "NAME": "BOLIVIA 49", "TIPO DE OB": "Obra Mayor", "M2.": "4.548", "ESTADO": "Obra NO Iniciada", "Trata": "MDUG0105A", "CIUDAD": "Ciudad Autonoma de Buenos Aires", "PAIS": "Argentina" }, "geometry": { "type": "Point", "coordinates": [ -58.466195531476401, -34.62978655 ] } },
{ "type": "Feature", "properties": { "N° EXPEDI": "12702295\/18", "NOMENC.PAR": "11-09-074-2C", "TEL": "22\/2\/2019", "NAME": "B. MITRE 1820", "TIPO DE OB": "Micro Obra", "M2.": null, "ESTADO": "Obra NO Iniciada", "Trata": "MDUG0122A", "CIUDAD": "Ciudad Autonoma de Buenos Aires", "PAIS": "Argentina" }, "geometry": { "type": "Point", "coordinates": [ -58.392620861180305, -34.608079707692511 ] } },
{ "type": "Feature", "properties": { "N° EXPEDI": "277049-33\/18", "NOMENC.PAR": "1-74-12A-9", "TEL": "18\/12\/2018", "NAME": "ACASSUSO 7550\/52", "TIPO DE OB": "Obra Menor", "M2.": "42", "ESTADO": "Obra NO Iniciada", "Trata": "#N\/A", "CIUDAD": "Ciudad Autonoma de Buenos Aires", "PAIS": "Argentina" }, "geometry": { "type": "Point", "coordinates": [ -58.5215232, -34.6567934 ] } },
{ "type": "Feature", "properties": { "N° EXPEDI": "32865847\/18", "NOMENC.PAR": "5-65-13-22", "TEL": "20\/2\/2019", "NAME": "BACACAY 3051", "TIPO DE OB": "Obra Media", "M2.": "636", "ESTADO": "Obra NO Iniciada", "Trata": "MDUG0105A", "CIUDAD": "Ciudad Autonoma de Buenos Aires", "PAIS": "Argentina" }, "geometry": { "type": "Point", "coordinates": [ -58.472909885714301, -34.628937951020397 ] } },
{ "type": "Feature", "properties": { "N° EXPEDI": "8806115\/17", "NOMENC.PAR": "5-57-32-4C", "TEL": "20\/2\/2019", "NAME": "NEUQUEN 1858\/60", "TIPO DE OB": "Obra Media", "M2.": "953", "ESTADO": "Obra NO Iniciada", "Trata": "MDUG0139A", "CIUDAD": "Ciudad Autonoma de Buenos Aires", "PAIS": "Argentina" }, "geometry": { "type": "Point", "coordinates": [ -58.459155, -34.616209285714298 ] } },
{ "type": "Feature", "properties": { "N° EXPEDI": "25469416\/18", "NOMENC.PAR": "1-074-144-007", "TEL": "20\/2\/2019", "NAME": "LARRAZABAL 545", "TIPO DE OB": "Obra Media", "M2.": "2.193", "ESTADO": "Obra NO Iniciada", "Trata": "MDUG0105A", "CIUDAD": "Ciudad Autonoma de Buenos Aires", "PAIS": "Argentina" }, "geometry": { "type": "Point", "coordinates": [ -58.5000878, -34.6532595 ] } },
{ "type": "Feature", "properties": { "N° EXPEDI": "21454594\/18", "NOMENC.PAR": "5-48-145-16h", "TEL": "15\/2\/2019", "NAME": "LAUTARO 71\/75", "TIPO DE OB": "Obra Menor", "M2.": "286", "ESTADO": "Obra NO Iniciada", "Trata": "MDUG0122A", "CIUDAD": "Ciudad Autonoma de Buenos Aires", "PAIS": "Argentina" }, "geometry": { "type": "Point", "coordinates": [ -58.457417357142901, -34.6280774 ] } },
{ "type": "Feature", "properties": { "N° EXPEDI": "20185900\/18", "NOMENC.PAR": "15-49-098B-014", "TEL": "15\/2\/2019", "NAME": "TRONADOR 523", "TIPO DE OB": "Obra Media", "M2.": "562", "ESTADO": "Obra NO Iniciada", "Trata": "MDUG0110B", "CIUDAD": "Ciudad Autonoma de Buenos Aires", "PAIS": "Argentina" }, "geometry": { "type": "Point", "coordinates": [ -58.468017163265301, -34.585989220408202 ] } },
{ "type": "Feature", "properties": { "N° EXPEDI": "26797075\/18", "NOMENC.PAR": "16-51-46-1", "TEL": "15\/2\/2019", "NAME": "MENDOZA 5110", "TIPO DE OB": "Obra Mayor", "M2.": "2.661", "ESTADO": "Obra NO Iniciada", "Trata": "MDUG0139A", "CIUDAD": "Ciudad Autonoma de Buenos Aires", "PAIS": "Argentina" }, "geometry": { "type": "Point", "coordinates": [ -58.4395973669575, -34.5504143 ] } },
{ "type": "Feature", "properties": { "N° EXPEDI": "31070422\/18", "NOMENC.PAR": "16-053-040-032", "TEL": "15\/2\/2019", "NAME": "MILLER 3240", "TIPO DE OB": "Micro Obra", "M2.": null, "ESTADO": "Obra NO Iniciada", "Trata": "MDUG0139A", "CIUDAD": "Ciudad Autonoma de Buenos Aires", "PAIS": "Argentina" }, "geometry": { "type": "Point", "coordinates": [ -58.486870632653101, -34.5646685102041 ] } },
{ "type": "Feature", "properties": { "N° EXPEDI": "24812755\/18", "NOMENC.PAR": "6-40-12-25", "TEL": "14\/2\/2019", "NAME": "CACHIMAYO 762\/66", "TIPO DE OB": "Obra Media", "M2.": "1.666", "ESTADO": "Obra NO Iniciada", "Trata": "MDUG0110B", "CIUDAD": "Ciudad Autonoma de Buenos Aires", "PAIS": "Argentina" }, "geometry": { "type": "Point", "coordinates": [ -58.44120055, -34.629741975 ] } },
{ "type": "Feature", "properties": { "N° EXPEDI": "15619856\/17", "NOMENC.PAR": null, "TEL": "19\/4\/2018", "NAME": "ARCOS 2966", "TIPO DE OB": "Obra Media", "M2.": "990", "ESTADO": "Obra NO Iniciada", "Trata": "MDUG0139A", "CIUDAD": "Ciudad Autonoma de Buenos Aires", "PAIS": "Argentina" }, "geometry": { "type": "Point", "coordinates": [ -58.460967155101997, -34.552260961224498 ] } },
{ "type": "Feature", "properties": { "N° EXPEDI": "12996602\/18", "NOMENC.PAR": "16-27-40-10", "TEL": "11\/10\/2018", "NAME": "ARCOS 3187\/89", "TIPO DE OB": "Micro Obra", "M2.": null, "ESTADO": "Obra NO Iniciada", "Trata": "MDUG0139A", "CIUDAD": "Ciudad Autonoma de Buenos Aires", "PAIS": "Argentina" }, "geometry": { "type": "Point", "coordinates": [ -58.462670455102, -34.550746610204101 ] } },
{ "type": "Feature", "properties": { "N° EXPEDI": "30846562\/18", "NOMENC.PAR": "16-29-28-20", "TEL": "2\/1\/2019", "NAME": "ARCOS 3726", "TIPO DE OB": "Micro Obra", "M2.": "17", "ESTADO": "Obra NO Iniciada", "Trata": "MDUG0122A", "CIUDAD": "Ciudad Autonoma de Buenos Aires", "PAIS": "Argentina" }, "geometry": { "type": "Point", "coordinates": [ -58.466106438775498, -34.546406553061203 ] } },
{ "type": "Feature", "properties": { "N° EXPEDI": "9386442\/17", "NOMENC.PAR": "16-29-49-19", "TEL": "15\/9\/2017", "NAME": "ARCOS 4555", "TIPO DE OB": "Obra Menor", "M2.": "451", "ESTADO": "Obra NO Iniciada", "Trata": "MDUG0139A", "CIUDAD": "Ciudad Autonoma de Buenos Aires", "PAIS": "Argentina" }, "geometry": { "type": "Point", "coordinates": [ -58.470346844898003, -34.540315773469402 ] } },
{ "type": "Feature", "properties": { "N° EXPEDI": "19950677\/18", "NOMENC.PAR": "29-051-016", "TEL": "28\/8\/2018", "NAME": "ARCOS 4705", "TIPO DE OB": "Obra Menor", "M2.": "43", "ESTADO": "Obra NO Iniciada", "Trata": "MDUG0122A", "CIUDAD": "Ciudad Autonoma de Buenos Aires", "PAIS": "Argentina" }, "geometry": { "type": "Point", "coordinates": [ -58.471253426530602, -34.539055634693902 ] } },
{ "type": "Feature", "properties": { "N° EXPEDI": "32758569\/18", "NOMENC.PAR": "15-51-50A-15", "TEL": "1\/2\/2019", "NAME": "GAMARRA 1867\/69", "TIPO DE OB": "Obra Media", "M2.": "1.326", "ESTADO": "Obra NO Iniciada", "Trata": "MDUG0105A", "CIUDAD": "Ciudad Autonoma de Buenos Aires", "PAIS": "Argentina" }, "geometry": { "type": "Point", "coordinates": [ -58.4776527, -34.5818082 ] } },
{ "type": "Feature", "properties": { "N° EXPEDI": "961301\/18", "NOMENC.PAR": "16-41-32-1", "TEL": "1\/2\/2019", "NAME": "NU�EZ 3638\/20", "TIPO DE OB": "Obra Media", "M2.": "1.833", "ESTADO": "Obra NO Iniciada", "Trata": "MDUG0122A", "CIUDAD": "Ciudad Autonoma de Buenos Aires", "PAIS": "Argentina" }, "geometry": { "type": "Point", "coordinates": [ -58.478187918367297, -34.556245836734703 ] } },
{ "type": "Feature", "properties": { "N° EXPEDI": "32767648\/18", "NOMENC.PAR": "17-37-43-18", "TEL": "31\/1\/2019", "NAME": "ZARRAGA 3454", "TIPO DE OB": "Obra Media", "M2.": "1.121", "ESTADO": "Obra NO Iniciada", "Trata": "MDUG0105A", "CIUDAD": "Ciudad Autonoma de Buenos Aires", "PAIS": "Argentina" }, "geometry": { "type": "Point", "coordinates": [ -58.461511469387801, -34.575451612244898 ] } },
{ "type": "Feature", "properties": { "N° EXPEDI": "32782861\/18", "NOMENC.PAR": "15-79-102-16", "TEL": "30\/1\/2019", "NAME": "E. LAMARCA 1069", "TIPO DE OB": "Micro Obra", "M2.": "8", "ESTADO": "Obra NO Iniciada", "Trata": "MDUG0122A", "CIUDAD": "Ciudad Autonoma de Buenos Aires", "PAIS": "Argentina" }, "geometry": { "type": "Point", "coordinates": [ -58.476699386102901, -34.6323237 ] } },
{ "type": "Feature", "properties": { "N° EXPEDI": "16224460\/18", "NOMENC.PAR": "19-15-129-2b", "TEL": "4\/7\/2018", "NAME": "ARENALES 2638\/40", "TIPO DE OB": "Obra Media", "M2.": "1.119", "ESTADO": "Obra NO Iniciada", "Trata": "MDUG0122A", "CIUDAD": "Ciudad Autonoma de Buenos Aires", "PAIS": "Argentina" }, "geometry": { "type": "Point", "coordinates": [ -58.403523740816297, -34.5928268693877 ] } },
{ "type": "Feature", "properties": { "N° EXPEDI": "33265817\/18", "NOMENC.PAR": "17-37-122-3", "TEL": "30\/1\/2019", "NAME": "VIRREY DEL PINO 2728", "TIPO DE OB": "Obra Mayor", "M2.": "2.563", "ESTADO": "Obra NO Iniciada", "Trata": "MDUG0110B", "CIUDAD": "Ciudad Autonoma de Buenos Aires", "PAIS": "Argentina" }, "geometry": { "type": "Point", "coordinates": [ -58.455886826530602, -34.568267193877602 ] } },
{ "type": "Feature", "properties": { "N° EXPEDI": "28805874\/18", "NOMENC.PAR": "27-63-23-45", "TEL": "29\/1\/2019", "NAME": "AIZPURUA 3196", "TIPO DE OB": "Obra Menor", "M2.": "108", "ESTADO": "Obra NO Iniciada", "Trata": "MDUG0122A", "CIUDAD": "Ciudad Autonoma de Buenos Aires", "PAIS": "Argentina" }, "geometry": { "type": "Point", "coordinates": [ -58.500104551020399, -34.572327224489797 ] } },
{ "type": "Feature", "properties": { "N° EXPEDI": "29121720\/18", "NOMENC.PAR": "16-43-12D-11d", "TEL": "18\/12\/2018", "NAME": "ARIAS 4005", "TIPO DE OB": "Obra Mayor", "M2.": "70.837", "ESTADO": "Obra NO Iniciada", "Trata": "MDUG0110B", "CIUDAD": "Ciudad Autonoma de Buenos Aires", "PAIS": "Argentina" }, "geometry": { "type": "Point", "coordinates": [ -58.4665799, -34.5388187 ] } },
{ "type": "Feature", "properties": { "N° EXPEDI": "28769773\/18", "NOMENC.PAR": "16-51-18-22", "TEL": "29\/1\/2019", "NAME": "JURAMENTO 5659", "TIPO DE OB": "Obra Media", "M2.": "940", "ESTADO": "Obra NO Iniciada", "Trata": "MDUG0105A", "CIUDAD": "Ciudad Autonoma de Buenos Aires", "PAIS": "Argentina" }, "geometry": { "type": "Point", "coordinates": [ -58.488321183673499, -34.581313979591798 ] } },
{ "type": "Feature", "properties": { "N° EXPEDI": "20730470\/17", "NOMENC.PAR": "15-61-83-31", "TEL": "15\/11\/2017", "NAME": "ARISMENDI 2417", "TIPO DE OB": "Obra Media", "M2.": "1.002", "ESTADO": "Obra NO Iniciada", "Trata": "MDUG0139A", "CIUDAD": "Ciudad Autonoma de Buenos Aires", "PAIS": "Argentina" }, "geometry": { "type": "Point", "coordinates": [ -58.473879053061196, -34.582450185714301 ] } },
{ "type": "Feature", "properties": { "N° EXPEDI": "21912018\/16", "NOMENC.PAR": "15-71-43-4a", "TEL": "28\/1\/2019", "NAME": "GUTENBERG 2958", "TIPO DE OB": "Obra Menor", "M2.": "72", "ESTADO": "Obra NO Iniciada", "Trata": "MDUG1001D", "CIUDAD": "Ciudad Autonoma de Buenos Aires", "PAIS": "Argentina" }, "geometry": { "type": "Point", "coordinates": [ -58.496669, -34.593647428571401 ] } },
{ "type": "Feature", "properties": { "N° EXPEDI": "24496887\/17", "NOMENC.PAR": "15-61-83-23", "TEL": "12\/12\/2017", "NAME": "ARISMENDI 2489", "TIPO DE OB": "Obra Media", "M2.": "553", "ESTADO": "Obra NO Iniciada", "Trata": "MDUG0139A", "CIUDAD": "Ciudad Autonoma de Buenos Aires", "PAIS": "Argentina" }, "geometry": { "type": "Point", "coordinates": [ -58.4745119918367, -34.5829392714286 ] } },
{ "type": "Feature", "properties": { "N° EXPEDI": "30295510\/17", "NOMENC.PAR": "15-61-55-7", "TEL": "29\/11\/2018", "NAME": "ARISMENDI 2880\/88", "TIPO DE OB": "Obra Media", "M2.": "917", "ESTADO": "Obra NO Iniciada", "Trata": "MDUG0122A", "CIUDAD": "Ciudad Autonoma de Buenos Aires", "PAIS": "Argentina" }, "geometry": { "type": "Point", "coordinates": [ -58.4771295, -34.5850882 ] } },
{ "type": "Feature", "properties": { "N° EXPEDI": "23360152\/17", "NOMENC.PAR": null, "TEL": "6\/6\/2018", "NAME": "ARRIBE�OS 2212", "TIPO DE OB": "Obra Media", "M2.": "668", "ESTADO": "Obra NO Iniciada", "Trata": "MDUG0105A", "CIUDAD": "Ciudad Autonoma de Buenos Aires", "PAIS": "Argentina" }, "geometry": { "type": "Point", "coordinates": [ -58.4511222, -34.5570287 ] } },
{ "type": "Feature", "properties": { "N° EXPEDI": "31594580\/18", "NOMENC.PAR": "3-18-133-1a", "TEL": "24\/1\/2019", "NAME": "HERRERA 1560", "TIPO DE OB": "Obra Menor", "M2.": "260", "ESTADO": "Obra NO Iniciada", "Trata": "MDUG0110B", "CIUDAD": "Ciudad Autonoma de Buenos Aires", "PAIS": "Argentina" }, "geometry": { "type": "Point", "coordinates": [ -58.3793112, -34.6328671 ] } },
{ "type": "Feature", "properties": { "N° EXPEDI": "31309869\/18", "NOMENC.PAR": "16-25-98-21", "TEL": "24\/1\/2019", "NAME": "JURAMENTO 1081", "TIPO DE OB": "Obra Menor", "M2.": "270", "ESTADO": "Obra NO Iniciada", "Trata": "MDUG0105A", "CIUDAD": "Ciudad Autonoma de Buenos Aires", "PAIS": "Argentina" }, "geometry": { "type": "Point", "coordinates": [ -58.4430961204082, -34.5538269408163 ] } },
{ "type": "Feature", "properties": { "N° EXPEDI": "30413878\/17", "NOMENC.PAR": "16-43-126-2", "TEL": "24\/1\/2019", "NAME": "JARAMILLO 2910", "TIPO DE OB": "Obra Media", "M2.": "837", "ESTADO": "Obra NO Iniciada", "Trata": "MDUG0105A", "CIUDAD": "Ciudad Autonoma de Buenos Aires", "PAIS": "Argentina" }, "geometry": { "type": "Point", "coordinates": [ -58.4735802306122, -34.550653559183701 ] } },
{ "type": "Feature", "properties": { "N° EXPEDI": "12711388\/18", "NOMENC.PAR": "12-14-25-36-4b-5b", "TEL": "24\/1\/2019", "NAME": "INDEPENDENCIA 1510", "TIPO DE OB": "Obra Mayor", "M2.": "14.895", "ESTADO": "Obra NO Iniciada", "Trata": "MDUG0105A", "CIUDAD": "Ciudad Autonoma de Buenos Aires", "PAIS": "Argentina" }, "geometry": { "type": "Point", "coordinates": [ -58.380865910550199, -34.61814285 ] } },
{ "type": "Feature", "properties": { "N° EXPEDI": "9412614\/18", "NOMENC.PAR": "16-27-07-20", "TEL": "24\/1\/2019", "NAME": "V. OBLIGADO 3186", "TIPO DE OB": "Micro Obra", "M2.": null, "ESTADO": "Obra NO Iniciada", "Trata": "MDUG0122A", "CIUDAD": "Ciudad Autonoma de Buenos Aires", "PAIS": "Argentina" }, "geometry": { "type": "Point", "coordinates": [ -58.4580226, -34.5589012 ] } },
{ "type": "Feature", "properties": { "N° EXPEDI": "38751479\/17", "NOMENC.PAR": "1-72-104-32", "TEL": "23\/1\/2019", "NAME": "PILAR 798", "TIPO DE OB": "Obra Media", "M2.": "678", "ESTADO": "Obra NO Iniciada", "Trata": "#N\/A", "CIUDAD": "Ciudad Autonoma de Buenos Aires", "PAIS": "Argentina" }, "geometry": { "type": "Point", "coordinates": [ -58.517621253061201, -34.6478767163265 ] } },
{ "type": "Feature", "properties": { "N° EXPEDI": "1627456\/16", "NOMENC.PAR": "15-93-114-27b", "TEL": "22\/1\/2019", "NAME": "ECHENAGUCIA 1153", "TIPO DE OB": "Obra Media", "M2.": "733", "ESTADO": "Obra NO Iniciada", "Trata": "#N\/A", "CIUDAD": "Ciudad Autonoma de Buenos Aires", "PAIS": "Argentina" }, "geometry": { "type": "Point", "coordinates": [ -58.518040061224497, -34.629304848979601 ] } },
{ "type": "Feature", "properties": { "N° EXPEDI": "21148445\/18", "NOMENC.PAR": "16-27-71-30", "TEL": "22\/8\/2018", "NAME": "ARRIBE�OS 2862\/66", "TIPO DE OB": "Obra Media", "M2.": "1.396", "ESTADO": "Obra NO Iniciada", "Trata": "#N\/A", "CIUDAD": "Ciudad Autonoma de Buenos Aires", "PAIS": "Argentina" }, "geometry": { "type": "Point", "coordinates": [ -58.456078718367301, -34.551231189795899 ] } },
{ "type": "Feature", "properties": { "N° EXPEDI": "31693342\/18", "NOMENC.PAR": "09-13-085-2A", "TEL": "22\/1\/2019", "NAME": "CORDOBA 2710", "TIPO DE OB": "Obra Mayor", "M2.": "6.780", "ESTADO": "Obra NO Iniciada", "Trata": "MDUG0139A", "CIUDAD": "Ciudad Autonoma de Buenos Aires", "PAIS": "Argentina" }, "geometry": { "type": "Point", "coordinates": [ -58.381829252147703, -34.5997731 ] } },
{ "type": "Feature", "properties": { "N° EXPEDI": "24045686\/18", "NOMENC.PAR": "16-51-01-24B", "TEL": "18\/1\/2019", "NAME": "CERETTI 1802", "TIPO DE OB": "Obra Media", "M2.": "1.002", "ESTADO": "Obra NO Iniciada", "Trata": "MDUG0105A", "CIUDAD": "Ciudad Autonoma de Buenos Aires", "PAIS": "Argentina" }, "geometry": { "type": "Point", "coordinates": [ -58.488277, -34.584382 ] } },
{ "type": "Feature", "properties": { "N° EXPEDI": "34246359\/18", "NOMENC.PAR": "01-74-46A-003", "TEL": "18\/1\/2019", "NAME": "ANDALGALA 1277", "TIPO DE OB": "Obra Media", "M2.": "1.034", "ESTADO": "Obra NO Iniciada", "Trata": "MDUG0105A", "CIUDAD": "Ciudad Autonoma de Buenos Aires", "PAIS": "Argentina" }, "geometry": { "type": "Point", "coordinates": [ -58.519022208333297, -34.652730916666698 ] } },
{ "type": "Feature", "properties": { "N° EXPEDI": "32620027\/18", "NOMENC.PAR": "17-35-86-02", "TEL": "18\/1\/2019", "NAME": "GUATEMALA 5612\/16", "TIPO DE OB": "Obra Media", "M2.": "1.256", "ESTADO": "Obra NO Iniciada", "Trata": "MDUG0139A", "CIUDAD": "Ciudad Autonoma de Buenos Aires", "PAIS": "Argentina" }, "geometry": { "type": "Point", "coordinates": [ -58.4322026387755, -34.580271812244902 ] } },
{ "type": "Feature", "properties": { "N° EXPEDI": "31926761\/18", "NOMENC.PAR": "16-39-58-24b", "TEL": "18\/1\/2019", "NAME": "ZAPIOLA 2309\/19", "TIPO DE OB": "Micro Obra", "M2.": null, "ESTADO": "Obra NO Iniciada", "Trata": "MDUG0139A", "CIUDAD": "Ciudad Autonoma de Buenos Aires", "PAIS": "Argentina" }, "geometry": { "type": "Point", "coordinates": [ -58.464972648979597, -34.563881330612197 ] } },
{ "type": "Feature", "properties": { "N° EXPEDI": "30384208\/18", "NOMENC.PAR": "15-69-061-019", "TEL": "15\/3\/2019", "NAME": "ARTIGAS 2931\/35", "TIPO DE OB": "Obra Media", "M2.": "881,2", "ESTADO": "Obra NO Iniciada", "Trata": "MDUG0105A", "CIUDAD": "Ciudad Autonoma de Buenos Aires", "PAIS": "Argentina" }, "geometry": { "type": "Point", "coordinates": [ -58.4724368, -34.6141919 ] } },
{ "type": "Feature", "properties": { "N° EXPEDI": "35309654\/18", "NOMENC.PAR": "1-77-153-027", "TEL": "17\/1\/2019", "NAME": "CUENCA 664", "TIPO DE OB": "Obra Menor", "M2.": "430", "ESTADO": "Obra NO Iniciada", "Trata": "MDUG0110B", "CIUDAD": "Ciudad Autonoma de Buenos Aires", "PAIS": "Argentina" }, "geometry": { "type": "Point", "coordinates": [ -58.476888857142903, -34.624658142857101 ] } },
{ "type": "Feature", "properties": { "N° EXPEDI": "34079864\/18", "NOMENC.PAR": "93-150A-006", "TEL": "17\/1\/2019", "NAME": "MOLIERE 1850", "TIPO DE OB": "Obra Media", "M2.": "659", "ESTADO": "Obra NO Iniciada", "Trata": "MDUG0122A", "CIUDAD": "Ciudad Autonoma de Buenos Aires", "PAIS": "Argentina" }, "geometry": { "type": "Point", "coordinates": [ -58.517425, -34.6231665 ] } },
{ "type": "Feature", "properties": { "N° EXPEDI": "4452591\/18", "NOMENC.PAR": null, "TEL": "11\/4\/2018", "NAME": "ARTIGAS 3132", "TIPO DE OB": "Obra Media", "M2.": "1.548", "ESTADO": "Obra NO Iniciada", "Trata": "MDUG0139A", "CIUDAD": "Ciudad Autonoma de Buenos Aires", "PAIS": "Argentina" }, "geometry": { "type": "Point", "coordinates": [ -58.4662931, -34.5901061 ] } },
{ "type": "Feature", "properties": { "N° EXPEDI": "14760574\/17", "NOMENC.PAR": "9-28-061-016A-18A", "TEL": "17\/1\/2019", "NAME": "LA RIOJA 148\/82", "TIPO DE OB": "Obra Mayor", "M2.": "14.435", "ESTADO": "Obra NO Iniciada", "Trata": "MDUG0139A", "CIUDAD": "Ciudad Autonoma de Buenos Aires", "PAIS": "Argentina" }, "geometry": { "type": "Point", "coordinates": [ -58.408650089795898, -34.6120311612245 ] } },
{ "type": "Feature", "properties": { "N° EXPEDI": "15891197\/18", "NOMENC.PAR": "16\/1\/2019", "TEL": "16\/1\/2019", "NAME": "MOZART 1339\/41", "TIPO DE OB": "Obra Menor", "M2.": "242", "ESTADO": "Obra NO Iniciada", "Trata": "MDUG0122A", "CIUDAD": "Ciudad Autonoma de Buenos Aires", "PAIS": "Argentina" }, "geometry": { "type": "Point", "coordinates": [ -58.481331897959201, -34.650479857142898 ] } },
{ "type": "Feature", "properties": { "N° EXPEDI": "26239303\/18", "NOMENC.PAR": "15-93-55-006", "TEL": "15\/1\/2019", "NAME": "BARRAGAN 942", "TIPO DE OB": "Obra Menor", "M2.": "84", "ESTADO": "Obra NO Iniciada", "Trata": "MDUG0122A", "CIUDAD": "Ciudad Autonoma de Buenos Aires", "PAIS": "Argentina" }, "geometry": { "type": "Point", "coordinates": [ -58.524990844897999, -34.627990389795897 ] } },
{ "type": "Feature", "properties": { "N° EXPEDI": "30759177\/18", "NOMENC.PAR": "1-44-138A-002", "TEL": "2\/1\/2019", "NAME": "ASAMBLEA 1122\/26", "TIPO DE OB": "Obra Menor", "M2.": "94", "ESTADO": "Obra NO Iniciada", "Trata": "MDUG0122A", "CIUDAD": "Ciudad Autonoma de Buenos Aires", "PAIS": "Argentina" }, "geometry": { "type": "Point", "coordinates": [ -58.450371, -34.6396892 ] } },
{ "type": "Feature", "properties": { "N° EXPEDI": "19404428\/18", "NOMENC.PAR": "01-44-096-011", "TEL": "29\/11\/2018", "NAME": "ASAMBLEA 1690\/92", "TIPO DE OB": "Obra Media", "M2.": "1.398", "ESTADO": "Obra NO Iniciada", "Trata": "#N\/A", "CIUDAD": "Ciudad Autonoma de Buenos Aires", "PAIS": "Argentina" }, "geometry": { "type": "Point", "coordinates": [ -58.448197857142901, -34.637996755102002 ] } },
{ "type": "Feature", "properties": { "N° EXPEDI": "23687890\/17", "NOMENC.PAR": null, "TEL": "19\/1\/2018", "NAME": "ASAMBLEA 354", "TIPO DE OB": "Obra Mayor", "M2.": "2.717", "ESTADO": "Obra NO Iniciada", "Trata": "MDUG0139A", "CIUDAD": "Ciudad Autonoma de Buenos Aires", "PAIS": "Argentina" }, "geometry": { "type": "Point", "coordinates": [ -58.450371, -34.6396892 ] } },
{ "type": "Feature", "properties": { "N° EXPEDI": "33083980\/18", "NOMENC.PAR": "1-44-164-13", "TEL": "27\/3\/2019", "NAME": "ASAMBLEA 972\/76", "TIPO DE OB": "Obra Media", "M2.": "1938,99", "ESTADO": "Obra NO Iniciada", "Trata": "MDUG0105A", "CIUDAD": "Ciudad Autonoma de Buenos Aires", "PAIS": "Argentina" }, "geometry": { "type": "Point", "coordinates": [ -58.450371, -34.6396892 ] } },
{ "type": "Feature", "properties": { "N° EXPEDI": "27125215\/18", "NOMENC.PAR": "16-53-56-15", "TEL": "14\/1\/2019", "NAME": "MILLER 3131", "TIPO DE OB": "Obra Media", "M2.": "1.000", "ESTADO": "Obra NO Iniciada", "Trata": "MDUG0105A", "CIUDAD": "Ciudad Autonoma de Buenos Aires", "PAIS": "Argentina" }, "geometry": { "type": "Point", "coordinates": [ -58.485676816326503, -34.565582836734698 ] } },
{ "type": "Feature", "properties": { "N° EXPEDI": "32647626\/18", "NOMENC.PAR": "15-71-45-11A", "TEL": "15\/2\/2019", "NAME": "ASUNCION 2982", "TIPO DE OB": "Obra Menor", "M2.": "120", "ESTADO": "Obra NO Iniciada", "Trata": "MDUG0122A", "CIUDAD": "Ciudad Autonoma de Buenos Aires", "PAIS": "Argentina" }, "geometry": { "type": "Point", "coordinates": [ -58.497878118367296, -34.592759136734699 ] } },
{ "type": "Feature", "properties": { "N° EXPEDI": "26591037\/17", "NOMENC.PAR": "1-77-141-8A", "TEL": "11\/1\/2019", "NAME": "AVELLANEDA", "TIPO DE OB": "Obra Menor", "M2.": "96", "ESTADO": "Obra NO Iniciada", "Trata": "#N\/A", "CIUDAD": "Ciudad Autonoma de Buenos Aires", "PAIS": "Argentina" }, "geometry": { "type": "Point", "coordinates": [ -58.4465881, -34.6175313 ] } },
{ "type": "Feature", "properties": { "N° EXPEDI": "12290445\/18", "NOMENC.PAR": "15-83-245-31", "TEL": "9\/1\/2019", "NAME": "PAREJA 3217", "TIPO DE OB": "Micro Obra", "M2.": "23", "ESTADO": "Obra NO Iniciada", "Trata": "MDUG0122A", "CIUDAD": "Ciudad Autonoma de Buenos Aires", "PAIS": "Argentina" }, "geometry": { "type": "Point", "coordinates": [ -58.503138448979598, -34.592541761224503 ] } },
{ "type": "Feature", "properties": { "N° EXPEDI": "28643460\/17", "NOMENC.PAR": "08-30-42-09", "TEL": "7\/1\/2019", "NAME": "PAVON 3174", "TIPO DE OB": "Obra Menor", "M2.": "118", "ESTADO": "Obra NO Iniciada", "Trata": "MDUG0139A", "CIUDAD": "Ciudad Autonoma de Buenos Aires", "PAIS": "Argentina" }, "geometry": { "type": "Point", "coordinates": [ -58.409189538000611, -34.628456949381167 ] } },
{ "type": "Feature", "properties": { "N° EXPEDI": "28699124\/18", "NOMENC.PAR": "15-47-158-033", "TEL": "7\/1\/2019", "NAME": "CAMARGO 1020", "TIPO DE OB": "Obra Media", "M2.": "1.268", "ESTADO": "Obra NO Iniciada", "Trata": "MDUG0105A", "CIUDAD": "Ciudad Autonoma de Buenos Aires", "PAIS": "Argentina" }, "geometry": { "type": "Point", "coordinates": [ -58.444903146938799, -34.596238977551003 ] } },
{ "type": "Feature", "properties": { "N° EXPEDI": "23835699\/17", "NOMENC.PAR": "046-157-002A", "TEL": "15\/11\/2018", "NAME": "AV. SAENZ 1447", "TIPO DE OB": "Obra Menor", "M2.": "300", "ESTADO": "Obra NO Iniciada", "Trata": "MDUG0105A", "CIUDAD": "Ciudad Autonoma de Buenos Aires", "PAIS": "Argentina" }, "geometry": { "type": "Point", "coordinates": [ -58.4163478, -34.6568227 ] } },
{ "type": "Feature", "properties": { "N° EXPEDI": "11606025\/18", "NOMENC.PAR": null, "TEL": "21\/5\/2018", "NAME": "AV.CALABRIA S\/N", "TIPO DE OB": "Obra Media", "M2.": "1.184", "ESTADO": "Obra NO Iniciada", "Trata": "MDUG0110B", "CIUDAD": "Ciudad Autonoma de Buenos Aires", "PAIS": "Argentina" }, "geometry": { "type": "Point", "coordinates": [ -58.3590999, -34.611674 ] } },
{ "type": "Feature", "properties": { "N° EXPEDI": "16838162\/17", "NOMENC.PAR": "16-41-133-6", "TEL": "15\/9\/2017", "NAME": "AV.CONGRESO 2650\/50a", "TIPO DE OB": "Obra Mayor", "M2.": "2.661", "ESTADO": "Obra NO Iniciada", "Trata": "MDUG0139A", "CIUDAD": "Ciudad Autonoma de Buenos Aires", "PAIS": "Argentina" }, "geometry": { "type": "Point", "coordinates": [ -58.4813767, -34.5651471 ] } },
{ "type": "Feature", "properties": { "N° EXPEDI": "12671344\/17", "NOMENC.PAR": "16-53-043-001A", "TEL": "28\/9\/2017", "NAME": "AV.CONGRESO 4606", "TIPO DE OB": "Obra Menor", "M2.": "103", "ESTADO": "Obra NO Iniciada", "Trata": "MDUG0122A", "CIUDAD": "Ciudad Autonoma de Buenos Aires", "PAIS": "Argentina" }, "geometry": { "type": "Point", "coordinates": [ -58.484772408163302, -34.56705 ] } },
{ "type": "Feature", "properties": { "N° EXPEDI": "3592591\/14", "NOMENC.PAR": null, "TEL": "16\/4\/2018", "NAME": "AV.CONGRESO 4767\/71", "TIPO DE OB": "Obra Mayor", "M2.": "2.592", "ESTADO": "Obra NO Iniciada", "Trata": "MDUG0110A", "CIUDAD": "Ciudad Autonoma de Buenos Aires", "PAIS": "Argentina" }, "geometry": { "type": "Point", "coordinates": [ -58.486355579591802, -34.5675942081633 ] } },
{ "type": "Feature", "properties": { "N° EXPEDI": "14540527\/17", "NOMENC.PAR": "15-61-125-19", "TEL": "11\/10\/2017", "NAME": "AV.DE LOS INCAS 5415", "TIPO DE OB": "Obra Media", "M2.": "1.947", "ESTADO": "Obra NO Iniciada", "Trata": "MDUG0139A", "CIUDAD": "Ciudad Autonoma de Buenos Aires", "PAIS": "Argentina" }, "geometry": { "type": "Point", "coordinates": [ -58.483769870833299, -34.588233783333301 ] } },
{ "type": "Feature", "properties": { "N° EXPEDI": "19901521\/17", "NOMENC.PAR": "16-43-100-30", "TEL": "3\/1\/2019", "NAME": "ZAPIOLA 4342", "TIPO DE OB": "Micro Obra", "M2.": null, "ESTADO": "Obra NO Iniciada", "Trata": "MDUG1001B", "CIUDAD": "Ciudad Autonoma de Buenos Aires", "PAIS": "Argentina" }, "geometry": { "type": "Point", "coordinates": [ -58.478226178108983, -34.546218133281734 ] } },
{ "type": "Feature", "properties": { "N° EXPEDI": "15365941\/18", "NOMENC.PAR": "1-77-64-33", "TEL": "2\/1\/2019", "NAME": "GOYA 622", "TIPO DE OB": "Obra Menor", "M2.": "245", "ESTADO": "Obra NO Iniciada", "Trata": "MDUG0122A", "CIUDAD": "Ciudad Autonoma de Buenos Aires", "PAIS": "Argentina" }, "geometry": { "type": "Point", "coordinates": [ -58.489614448979601, -34.629787918367299 ] } },
{ "type": "Feature", "properties": { "N° EXPEDI": "25519102\/17", "NOMENC.PAR": "16-73-008B-014", "TEL": "2\/1\/2019", "NAME": "CUENCA 4841", "TIPO DE OB": "Obra Menor", "M2.": "328", "ESTADO": "Obra NO Iniciada", "Trata": "MDUG0122A", "CIUDAD": "Ciudad Autonoma de Buenos Aires", "PAIS": "Argentina" }, "geometry": { "type": "Point", "coordinates": [ -58.507151959183702, -34.587449142857103 ] } },
{ "type": "Feature", "properties": { "N° EXPEDI": "30030538\/17", "NOMENC.PAR": "15-87-35A-003", "TEL": "2\/1\/2019", "NAME": "BERMUDEZ 2530", "TIPO DE OB": "Obra Menor", "M2.": "423", "ESTADO": "Obra NO Iniciada", "Trata": "MDUG0110B", "CIUDAD": "Ciudad Autonoma de Buenos Aires", "PAIS": "Argentina" }, "geometry": { "type": "Point", "coordinates": [ -58.5251141, -34.6073806 ] } },
{ "type": "Feature", "properties": { "N° EXPEDI": "28697519\/18", "NOMENC.PAR": "1-60-79B-8", "TEL": "2\/1\/2019", "NAME": "ARAUJO 836", "TIPO DE OB": "Obra Menor", "M2.": "487", "ESTADO": "Obra NO Iniciada", "Trata": "MDUG0105A", "CIUDAD": "Ciudad Autonoma de Buenos Aires", "PAIS": "Argentina" }, "geometry": { "type": "Point", "coordinates": [ -58.499431333333298, -34.645376375 ] } },
{ "type": "Feature", "properties": { "N° EXPEDI": "30981088\/18", "NOMENC.PAR": "11-09-02-21", "TEL": "2\/1\/2019", "NAME": "B. MITRE 2715", "TIPO DE OB": "Obra Media", "M2.": "538", "ESTADO": "Obra NO Iniciada", "Trata": "MDUG0105A", "CIUDAD": "Ciudad Autonoma de Buenos Aires", "PAIS": "Argentina" }, "geometry": { "type": "Point", "coordinates": [ -58.40505634761935, -34.608696176902761 ] } },
{ "type": "Feature", "properties": { "N° EXPEDI": "28575931\/18", "NOMENC.PAR": "16-55-232-7", "TEL": "2\/1\/2019", "NAME": "PLAZA 4583", "TIPO DE OB": "Obra Media", "M2.": "730", "ESTADO": "Obra NO Iniciada", "Trata": "MDUG0105A", "CIUDAD": "Ciudad Autonoma de Buenos Aires", "PAIS": "Argentina" }, "geometry": { "type": "Point", "coordinates": [ -58.351500017064097, -34.6178581 ] } },
{ "type": "Feature", "properties": { "N° EXPEDI": "32424072\/18", "NOMENC.PAR": "5-42-58-7B", "TEL": "2\/1\/2019", "NAME": "ACHAVAL 426", "TIPO DE OB": "Obra Media", "M2.": "1.147", "ESTADO": "Obra NO Iniciada", "Trata": "MDUG0105A", "CIUDAD": "Ciudad Autonoma de Buenos Aires", "PAIS": "Argentina" }, "geometry": { "type": "Point", "coordinates": [ -58.448507312244899, -34.629317204081602 ] } },
{ "type": "Feature", "properties": { "N° EXPEDI": "29331964\/17", "NOMENC.PAR": "8-30-63-27", "TEL": "2\/1\/2019", "NAME": "BARCALA 3041", "TIPO DE OB": "Obra Media", "M2.": "1.766", "ESTADO": "Obra NO Iniciada", "Trata": "MDUG0105A", "CIUDAD": "Ciudad Autonoma de Buenos Aires", "PAIS": "Argentina" }, "geometry": { "type": "Point", "coordinates": [ -58.4087702, -34.6255807 ] } },
{ "type": "Feature", "properties": { "N° EXPEDI": "18991212\/18", "NOMENC.PAR": "15-61-54-44", "TEL": "30\/7\/2018", "NAME": "AVALOS 1282", "TIPO DE OB": "Obra Media", "M2.": "1.246", "ESTADO": "Obra NO Iniciada", "Trata": "MDUG0110B", "CIUDAD": "Ciudad Autonoma de Buenos Aires", "PAIS": "Argentina" }, "geometry": { "type": "Point", "coordinates": [ -58.476974755101999, -34.585456612244897 ] } },
{ "type": "Feature", "properties": { "N° EXPEDI": "33216198\/18", "NOMENC.PAR": "2-32-90-33d", "TEL": "2\/1\/2019", "NAME": "CHICLANA 3101", "TIPO DE OB": "Obra Mayor", "M2.": "2.674", "ESTADO": "Obra NO Iniciada", "Trata": "MDUG0110B", "CIUDAD": "Ciudad Autonoma de Buenos Aires", "PAIS": "Argentina" }, "geometry": { "type": "Point", "coordinates": [ -58.393362, -34.5880178 ] } },
{ "type": "Feature", "properties": { "N° EXPEDI": "30239274\/18", "NOMENC.PAR": "15-85-10a-37", "TEL": "2\/1\/2019", "NAME": "MIRANDA 5233", "TIPO DE OB": "Obra Mayor", "M2.": "2.721", "ESTADO": "Obra NO Iniciada", "Trata": "MDUG0105A", "CIUDAD": "Ciudad Autonoma de Buenos Aires", "PAIS": "Argentina" }, "geometry": { "type": "Point", "coordinates": [ -58.508551061224502, -34.6251813061224 ] } },
{ "type": "Feature", "properties": { "N° EXPEDI": "22085060\/18", "NOMENC.PAR": "16-51-5-3", "TEL": "20\/12\/2018", "NAME": "OLAZABAL 5614\/18", "TIPO DE OB": "Micro Obra", "M2.": "4", "ESTADO": "Obra NO Iniciada", "Trata": "MDUG0139A", "CIUDAD": "Ciudad Autonoma de Buenos Aires", "PAIS": "Argentina" }, "geometry": { "type": "Point", "coordinates": [ -58.4639215, -34.5634774 ] } },
{ "type": "Feature", "properties": { "N° EXPEDI": "27083514\/17", "NOMENC.PAR": "2-32-63-32", "TEL": "20\/12\/2018", "NAME": "ELIA 457\/61", "TIPO DE OB": "Obra Menor", "M2.": "176", "ESTADO": "Obra NO Iniciada", "Trata": "MDUG0122A", "CIUDAD": "Ciudad Autonoma de Buenos Aires", "PAIS": "Argentina" }, "geometry": { "type": "Point", "coordinates": [ -58.408775857142899, -34.643436285714301 ] } },
{ "type": "Feature", "properties": { "N° EXPEDI": "26568186\/18", "NOMENC.PAR": "1-78-135-12a", "TEL": "29\/10\/2018", "NAME": "BALBASTRO 5671\/91", "TIPO DE OB": "Obra Menor", "M2.": "222", "ESTADO": "Obra NO Iniciada", "Trata": "MDUG0122A", "CIUDAD": "Ciudad Autonoma de Buenos Aires", "PAIS": "Argentina" }, "geometry": { "type": "Point", "coordinates": [ -58.482347142857101, -34.671447285714301 ] } },
{ "type": "Feature", "properties": { "N° EXPEDI": "20638223\/18", "NOMENC.PAR": "1-44-159-24a", "TEL": "20\/12\/2018", "NAME": "ZA�ARTU 1327\/57", "TIPO DE OB": "Obra Media", "M2.": "567", "ESTADO": "Obra NO Iniciada", "Trata": "MDUG0122A", "CIUDAD": "Ciudad Autonoma de Buenos Aires", "PAIS": "Argentina" }, "geometry": { "type": "Point", "coordinates": [ -58.436046244898002, -34.6398513673469 ] } },
{ "type": "Feature", "properties": { "N° EXPEDI": "24303040\/16", "NOMENC.PAR": null, "TEL": "28\/3\/2018", "NAME": "BASUALDO 265", "TIPO DE OB": "Obra Media", "M2.": "823", "ESTADO": "Obra NO Iniciada", "Trata": "MDUG0110B", "CIUDAD": "Ciudad Autonoma de Buenos Aires", "PAIS": "Argentina" }, "geometry": { "type": "Point", "coordinates": [ -58.503867714285697, -34.640868530612202 ] } },
{ "type": "Feature", "properties": { "N° EXPEDI": "45540595\/18", "NOMENC.PAR": "15-61-54-19a", "TEL": "17\/10\/2018", "NAME": "BAUNESS 1251\/53", "TIPO DE OB": "Obra Mayor", "M2.": "3.045", "ESTADO": "Obra NO Iniciada", "Trata": "#N\/A", "CIUDAD": "Ciudad Autonoma de Buenos Aires", "PAIS": "Argentina" }, "geometry": { "type": "Point", "coordinates": [ -58.477377971428602, -34.586339724489797 ] } },
{ "type": "Feature", "properties": { "N° EXPEDI": "34062335\/18", "NOMENC.PAR": "15-71-9-7", "TEL": "20\/12\/2018", "NAME": "CUENCA 3533\/35", "TIPO DE OB": "Obra Media", "M2.": "1.265", "ESTADO": "Obra NO Iniciada", "Trata": "MDUG0122A", "CIUDAD": "Ciudad Autonoma de Buenos Aires", "PAIS": "Argentina" }, "geometry": { "type": "Point", "coordinates": [ -58.498396267346898, -34.597104359183703 ] } },
{ "type": "Feature", "properties": { "N° EXPEDI": "2601400\/16", "NOMENC.PAR": "17-35-111-17", "TEL": "20\/12\/2018", "NAME": "HUMBOLDT 2333\/35", "TIPO DE OB": "Obra Media", "M2.": "1.719", "ESTADO": "Obra NO Iniciada", "Trata": "#N\/A", "CIUDAD": "Ciudad Autonoma de Buenos Aires", "PAIS": "Argentina" }, "geometry": { "type": "Point", "coordinates": [ -58.429554467346897, -34.579917185714301 ] } },
{ "type": "Feature", "properties": { "N° EXPEDI": "26443923\/18", "NOMENC.PAR": "007-17-002-006", "TEL": "20\/12\/2018", "NAME": "LEZICA 4483\/87", "TIPO DE OB": "Obra Media", "M2.": "1.807", "ESTADO": "Obra NO Iniciada", "Trata": "MDUG0105A", "CIUDAD": "Ciudad Autonoma de Buenos Aires", "PAIS": "Argentina" }, "geometry": { "type": "Point", "coordinates": [ -58.4268308, -34.6126851 ] } },
{ "type": "Feature", "properties": { "N° EXPEDI": "9924582\/18", "NOMENC.PAR": "1-74-110-2a", "TEL": "20\/12\/2018", "NAME": "MURGUIONDO 1565\/69", "TIPO DE OB": "Obra Media", "M2.": "1.830", "ESTADO": "Obra NO Iniciada", "Trata": "MDUG0105A", "CIUDAD": "Ciudad Autonoma de Buenos Aires", "PAIS": "Argentina" }, "geometry": { "type": "Point", "coordinates": [ -58.518752222449002, -34.6399376653061 ] } },
{ "type": "Feature", "properties": { "N° EXPEDI": "24993867\/18", "NOMENC.PAR": "9-13-64-12a", "TEL": "20\/12\/2018", "NAME": "CORDOBA 3030", "TIPO DE OB": "Obra Mayor", "M2.": "9.483", "ESTADO": "Obra NO Iniciada", "Trata": "MDUG0105A", "CIUDAD": "Ciudad Autonoma de Buenos Aires", "PAIS": "Argentina" }, "geometry": { "type": "Point", "coordinates": [ -58.381829252147703, -34.5997731 ] } },
{ "type": "Feature", "properties": { "N° EXPEDI": "29154161\/18", "NOMENC.PAR": "16-43-12D-003", "TEL": "20\/12\/2018", "NAME": "VEDIA 3892", "TIPO DE OB": "Obra Mayor", "M2.": "43.103", "ESTADO": "Obra NO Iniciada", "Trata": "MDUG0122A", "CIUDAD": "Ciudad Autonoma de Buenos Aires", "PAIS": "Argentina" }, "geometry": { "type": "Point", "coordinates": [ -58.48943961002, -34.546146106212397 ] } },
{ "type": "Feature", "properties": { "N° EXPEDI": "4351758\/18", "NOMENC.PAR": "1-54-112-022", "TEL": "20\/12\/2018", "NAME": "LACARRA 1088", "TIPO DE OB": "Micro Obra", "M2.": null, "ESTADO": "Obra NO Iniciada", "Trata": "MDUG0122A", "CIUDAD": "Ciudad Autonoma de Buenos Aires", "PAIS": "Argentina" }, "geometry": { "type": "Point", "coordinates": [ -58.476181673469398, -34.6441096530612 ] } },
{ "type": "Feature", "properties": { "N° EXPEDI": "26671307\/15", "NOMENC.PAR": "5-48-155-5o", "TEL": "20\/12\/2018", "NAME": "LAUTARO 94", "TIPO DE OB": "Micro Obra", "M2.": null, "ESTADO": "Obra NO Iniciada", "Trata": "MDUG0110A", "CIUDAD": "Ciudad Autonoma de Buenos Aires", "PAIS": "Argentina" }, "geometry": { "type": "Point", "coordinates": [ -58.457133644898001, -34.628275755102003 ] } },
{ "type": "Feature", "properties": { "N° EXPEDI": "34980952\/18", "NOMENC.PAR": "16-63-105-21", "TEL": "28\/1\/2019", "NAME": "BAUNESS 2978", "TIPO DE OB": "Micro Obra", "M2.": "10", "ESTADO": "Obra NO Iniciada", "Trata": "MDUG0122A", "CIUDAD": "Ciudad Autonoma de Buenos Aires", "PAIS": "Argentina" }, "geometry": { "type": "Point", "coordinates": [ -58.491291965306097, -34.570731534693898 ] } },
{ "type": "Feature", "properties": { "N° EXPEDI": "12961298\/18", "NOMENC.PAR": "15-83-084-001", "TEL": "20\/12\/2018", "NAME": "BAHIA BLANCA 4296", "TIPO DE OB": "Micro Obra", "M2.": null, "ESTADO": "Obra NO Iniciada", "Trata": "#N\/A", "CIUDAD": "Ciudad Autonoma de Buenos Aires", "PAIS": "Argentina" }, "geometry": { "type": "Point", "coordinates": [ -58.512635816326501, -34.597626244898002 ] } },
{ "type": "Feature", "properties": { "N° EXPEDI": "29762855\/17", "NOMENC.PAR": null, "TEL": "29\/5\/2018", "NAME": "BAUNESS 2978\/82", "TIPO DE OB": "Obra Mayor", "M2.": "3.063", "ESTADO": "Obra NO Iniciada", "Trata": "MDUG0105A", "CIUDAD": "Ciudad Autonoma de Buenos Aires", "PAIS": "Argentina" }, "geometry": { "type": "Point", "coordinates": [ -58.491291965306097, -34.570731534693898 ] } },
{ "type": "Feature", "properties": { "N° EXPEDI": "29505692\/17", "NOMENC.PAR": "15-67-29-8A", "TEL": "21\/12\/2017", "NAME": "BELAUSTEGUI 2976", "TIPO DE OB": "Obra Media", "M2.": "1.971", "ESTADO": "Obra NO Iniciada", "Trata": "MDUG0105A", "CIUDAD": "Ciudad Autonoma de Buenos Aires", "PAIS": "Argentina" }, "geometry": { "type": "Point", "coordinates": [ -58.478256367346901, -34.617019367346899 ] } },
{ "type": "Feature", "properties": { "N° EXPEDI": "24381611\/18", "NOMENC.PAR": "74-1-58-12", "TEL": "18\/12\/2018", "NAME": "CULPINA 343", "TIPO DE OB": "Obra Media", "M2.": "1.196", "ESTADO": "Obra NO Iniciada", "Trata": "#N\/A", "CIUDAD": "Ciudad Autonoma de Buenos Aires", "PAIS": "Argentina" }, "geometry": { "type": "Point", "coordinates": [ -58.465180428571401, -34.6341821428571 ] } },
{ "type": "Feature", "properties": { "N° EXPEDI": "6524081\/17", "NOMENC.PAR": "1-62-98B-17", "TEL": "18\/12\/2018", "NAME": "MONTE 5200", "TIPO DE OB": "Micro Obra", "M2.": null, "ESTADO": "Obra NO Iniciada", "Trata": "MDUG0105A", "CIUDAD": "Ciudad Autonoma de Buenos Aires", "PAIS": "Argentina" }, "geometry": { "type": "Point", "coordinates": [ -58.483576, -34.657698 ] } },
{ "type": "Feature", "properties": { "N° EXPEDI": "12142805\/18", "NOMENC.PAR": "1-72-137-02", "TEL": "18\/12\/2018", "NAME": "CAAGUAZU 6110", "TIPO DE OB": "Micro Obra", "M2.": null, "ESTADO": "Obra NO Iniciada", "Trata": "#N\/A", "CIUDAD": "Ciudad Autonoma de Buenos Aires", "PAIS": "Argentina" }, "geometry": { "type": "Point", "coordinates": [ -58.514426, -34.643428795918403 ] } },
{ "type": "Feature", "properties": { "N° EXPEDI": "27480756\/16", "NOMENC.PAR": "16-29-32-11", "TEL": "26\/10\/2017", "NAME": "BESARES 2181", "TIPO DE OB": "Obra Menor", "M2.": "91", "ESTADO": "Obra NO Iniciada", "Trata": "MDUG0122A", "CIUDAD": "Ciudad Autonoma de Buenos Aires", "PAIS": "Argentina" }, "geometry": { "type": "Point", "coordinates": [ -58.468640977550997, -34.5440267653061 ] } },
{ "type": "Feature", "properties": { "N° EXPEDI": "21153349\/15", "NOMENC.PAR": "16-63-12-23", "TEL": "14\/12\/2018", "NAME": "PIRAN 6369", "TIPO DE OB": "Obra Menor", "M2.": "206", "ESTADO": "Obra NO Iniciada", "Trata": "MDUG1001I", "CIUDAD": "Ciudad Autonoma de Buenos Aires", "PAIS": "Argentina" }, "geometry": { "type": "Point", "coordinates": [ -58.506308283673498, -34.571141702040798 ] } },
{ "type": "Feature", "properties": { "N° EXPEDI": "26800383\/18", "NOMENC.PAR": "7-45-40-25", "TEL": "14\/12\/2018", "NAME": "AMPERE 841", "TIPO DE OB": "Obra Media", "M2.": "1.302", "ESTADO": "Obra NO Iniciada", "Trata": "MDUG0105A", "CIUDAD": "Ciudad Autonoma de Buenos Aires", "PAIS": "Argentina" }, "geometry": { "type": "Point", "coordinates": [ -58.445691944898002, -34.6085903367347 ] } },
{ "type": "Feature", "properties": { "N° EXPEDI": "18112896\/18", "NOMENC.PAR": "16-43-35-21", "TEL": "10\/10\/2018", "NAME": "BESARES 3639", "TIPO DE OB": "Micro Obra", "M2.": null, "ESTADO": "Obra NO Iniciada", "Trata": "MDUG0139A", "CIUDAD": "Ciudad Autonoma de Buenos Aires", "PAIS": "Argentina" }, "geometry": { "type": "Point", "coordinates": [ -58.482680197119102, -34.550418726909903 ] } },
{ "type": "Feature", "properties": { "N° EXPEDI": "25261427\/18", "NOMENC.PAR": "15-79-11-21\/22a", "TEL": "14\/12\/2018", "NAME": "MIRANDA 4447\/61", "TIPO DE OB": "Obra Mayor", "M2.": "9.542", "ESTADO": "Obra NO Iniciada", "Trata": "MDUG0105A", "CIUDAD": "Ciudad Autonoma de Buenos Aires", "PAIS": "Argentina" }, "geometry": { "type": "Point", "coordinates": [ -58.499913306122501, -34.6192015081633 ] } },
{ "type": "Feature", "properties": { "N° EXPEDI": "33108817\/18", "NOMENC.PAR": "15-81-87-.28a", "TEL": "13\/12\/2018", "NAME": "NAZARRE 3817\/25", "TIPO DE OB": "Obra Media", "M2.": "1.490", "ESTADO": "Obra NO Iniciada", "Trata": "MDUG0105A", "CIUDAD": "Ciudad Autonoma de Buenos Aires", "PAIS": "Argentina" }, "geometry": { "type": "Point", "coordinates": [ -58.5013965714286, -34.606124857142902 ] } },
{ "type": "Feature", "properties": { "N° EXPEDI": "29276030\/18", "NOMENC.PAR": "18-19-118-1A", "TEL": "13\/12\/2018", "NAME": "PARAGUAY 4302\/58", "TIPO DE OB": "Obra Mayor", "M2.": "24.418", "ESTADO": "Obra NO Iniciada", "Trata": "MDUG0105A", "CIUDAD": "Ciudad Autonoma de Buenos Aires", "PAIS": "Argentina" }, "geometry": { "type": "Point", "coordinates": [ -58.422464, -34.586154 ] } },
{ "type": "Feature", "properties": { "N° EXPEDI": "264237774\/18", "NOMENC.PAR": "15-33-18-18\/18a", "TEL": "13\/12\/2018", "NAME": "MAURE 4056\/72", "TIPO DE OB": "Micro Obra", "M2.": null, "ESTADO": "Obra NO Iniciada", "Trata": "#N\/A", "CIUDAD": "Ciudad Autonoma de Buenos Aires", "PAIS": "Argentina" }, "geometry": { "type": "Point", "coordinates": [ -58.4518920816327, -34.5868112244898 ] } },
{ "type": "Feature", "properties": { "N° EXPEDI": "9431206\/18", "NOMENC.PAR": "9-13-23-14A", "TEL": "28\/11\/2018", "NAME": "BILLINGHURST 23", "TIPO DE OB": "Micro Obra", "M2.": null, "ESTADO": "Obra NO Iniciada", "Trata": "MDUG0105A", "CIUDAD": "Ciudad Autonoma de Buenos Aires", "PAIS": "Argentina" }, "geometry": { "type": "Point", "coordinates": [ -58.415721777550999, -34.610445253061201 ] } },
{ "type": "Feature", "properties": { "N° EXPEDI": "29549806\/15", "NOMENC.PAR": "16-75-62-5", "TEL": "12\/12\/2018", "NAME": "BOLIVIA 5564", "TIPO DE OB": "Obra Menor", "M2.": "50", "ESTADO": "Obra NO Iniciada", "Trata": "MDUG0122A", "CIUDAD": "Ciudad Autonoma de Buenos Aires", "PAIS": "Argentina" }, "geometry": { "type": "Point", "coordinates": [ -58.505136591836703, -34.577430612244903 ] } },
{ "type": "Feature", "properties": { "N° EXPEDI": "16900594\/18", "NOMENC.PAR": "05-61-87-03", "TEL": "12\/12\/2018", "NAME": "LA HAYA 3830\/34", "TIPO DE OB": "Obra Menor", "M2.": "70", "ESTADO": "Obra NO Iniciada", "Trata": "MDUG0122A", "CIUDAD": "Ciudad Autonoma de Buenos Aires", "PAIS": "Argentina" }, "geometry": { "type": "Point", "coordinates": [ -58.475885242857103, -34.5810443 ] } },
{ "type": "Feature", "properties": { "N° EXPEDI": "17837921\/18", "NOMENC.PAR": "4-10-65-24", "TEL": "25\/7\/2018", "NAME": "BRANDSEN 1167", "TIPO DE OB": "Obra Media", "M2.": "1.511", "ESTADO": "Obra NO Iniciada", "Trata": "MDUG0139A", "CIUDAD": "Ciudad Autonoma de Buenos Aires", "PAIS": "Argentina" }, "geometry": { "type": "Point", "coordinates": [ -58.3691033469388, -34.637238816326501 ] } },
{ "type": "Feature", "properties": { "N° EXPEDI": "17578286\/16", "NOMENC.PAR": "13-02-22-4", "TEL": "12\/12\/2018", "NAME": "BELGRANO 666\/72", "TIPO DE OB": "Obra Media", "M2.": "836", "ESTADO": "Obra NO Iniciada", "Trata": "MDUG1001I", "CIUDAD": "Ciudad Autonoma de Buenos Aires", "PAIS": "Argentina" }, "geometry": { "type": "Point", "coordinates": [ -58.375487571694002, -34.612762428006633 ] } },
{ "type": "Feature", "properties": { "N° EXPEDI": "17332766\/18", "NOMENC.PAR": "02-024-097a-0000", "TEL": "20\/12\/2018", "NAME": "BRASIL 2150", "TIPO DE OB": "Obra Menor", "M2.": "259", "ESTADO": "Obra NO Iniciada", "Trata": "MDUG0122A", "CIUDAD": "Ciudad Autonoma de Buenos Aires", "PAIS": "Argentina" }, "geometry": { "type": "Point", "coordinates": [ -58.398986, -34.6310049 ] } },
{ "type": "Feature", "properties": { "N° EXPEDI": "12345665\/17", "NOMENC.PAR": "04-06-82-25a", "TEL": "2\/1\/2019", "NAME": "BRASIL 75", "TIPO DE OB": "Obra Mayor", "M2.": "6.260", "ESTADO": "Obra NO Iniciada", "Trata": "MDUG0105B", "CIUDAD": "Ciudad Autonoma de Buenos Aires", "PAIS": "Argentina" }, "geometry": { "type": "Point", "coordinates": [ -58.365310937931, -34.625078424137897 ] } },
{ "type": "Feature", "properties": { "N° EXPEDI": "240168666\/18", "NOMENC.PAR": "18-31-97-23", "TEL": "12\/12\/2018", "NAME": "CORDOBA 4109", "TIPO DE OB": "Micro Obra", "M2.": null, "ESTADO": "Obra NO Iniciada", "Trata": "#N\/A", "CIUDAD": "Ciudad Autonoma de Buenos Aires", "PAIS": "Argentina" }, "geometry": { "type": "Point", "coordinates": [ -58.381829252147703, -34.5997731 ] } },
{ "type": "Feature", "properties": { "N° EXPEDI": "18876016\/18", "NOMENC.PAR": "15-67-57-14", "TEL": "11\/12\/2018", "NAME": "TERRADA 1877", "TIPO DE OB": "Obra Media", "M2.": "1.358", "ESTADO": "Obra NO Iniciada", "Trata": "MDUG0139A", "CIUDAD": "Ciudad Autonoma de Buenos Aires", "PAIS": "Argentina" }, "geometry": { "type": "Point", "coordinates": [ -58.479027857142903, -34.612005 ] } },
{ "type": "Feature", "properties": { "N° EXPEDI": "17991638\/18", "NOMENC.PAR": "15-93-74-11", "TEL": "3\/9\/2018", "NAME": "BRUSELAS 662\/66", "TIPO DE OB": "Micro Obra", "M2.": null, "ESTADO": "Obra NO Iniciada", "Trata": "MDUG0139A", "CIUDAD": "Ciudad Autonoma de Buenos Aires", "PAIS": "Argentina" }, "geometry": { "type": "Point", "coordinates": [ -58.522390208163301, -34.630171128571398 ] } },
{ "type": "Feature", "properties": { "N° EXPEDI": "29709121\/17", "NOMENC.PAR": null, "TEL": "20\/4\/2018", "NAME": "BULNES 1289\/91", "TIPO DE OB": "Obra Media", "M2.": "789", "ESTADO": "Obra NO Iniciada", "Trata": "#N\/A", "CIUDAD": "Ciudad Autonoma de Buenos Aires", "PAIS": "Argentina" }, "geometry": { "type": "Point", "coordinates": [ -58.4169658692308, -34.596884157692301 ] } },
{ "type": "Feature", "properties": { "N° EXPEDI": "19063746\/18", "NOMENC.PAR": "16-27-27-22", "TEL": "10\/12\/2018", "NAME": "CUBA 2939", "TIPO DE OB": "Obra Menor", "M2.": "92", "ESTADO": "Obra NO Iniciada", "Trata": "MDUG0122A", "CIUDAD": "Ciudad Autonoma de Buenos Aires", "PAIS": "Argentina" }, "geometry": { "type": "Point", "coordinates": [ -58.449826334981204, -34.53814025 ] } },
{ "type": "Feature", "properties": { "N° EXPEDI": "21428440\/18", "NOMENC.PAR": "19-15-2-16", "TEL": "15\/11\/2018", "NAME": "BULNES 1383\/85", "TIPO DE OB": "Obra Mayor", "M2.": "2.939", "ESTADO": "Obra NO Iniciada", "Trata": "MDUG0122A", "CIUDAD": "Ciudad Autonoma de Buenos Aires", "PAIS": "Argentina" }, "geometry": { "type": "Point", "coordinates": [ -58.4166905, -34.595862539130401 ] } },
{ "type": "Feature", "properties": { "N° EXPEDI": "8222219\/18", "NOMENC.PAR": "15-49-86-23A", "TEL": "10\/12\/2018", "NAME": "TRONADOR 656\/76", "TIPO DE OB": "Obra Mayor", "M2.": "10.675", "ESTADO": "Obra NO Iniciada", "Trata": "MDUG0110B", "CIUDAD": "Ciudad Autonoma de Buenos Aires", "PAIS": "Argentina" }, "geometry": { "type": "Point", "coordinates": [ -58.4668817689534, -34.584632894541102 ] } },
{ "type": "Feature", "properties": { "N° EXPEDI": "30077933\/18", "NOMENC.PAR": "18-19-125-20", "TEL": "13\/3\/2019", "NAME": "BULNES 1716", "TIPO DE OB": "Obra Media", "M2.": "717,87", "ESTADO": "Obra NO Iniciada", "Trata": "MDUG0105A", "CIUDAD": "Ciudad Autonoma de Buenos Aires", "PAIS": "Argentina" }, "geometry": { "type": "Point", "coordinates": [ -58.415068857142899, -34.591531882857097 ] } },
{ "type": "Feature", "properties": { "N° EXPEDI": "24709299\/18", "NOMENC.PAR": "7-17-100B-29", "TEL": "19\/10\/2018", "NAME": "BULNES 186", "TIPO DE OB": "Obra Menor", "M2.": "70", "ESTADO": "Obra NO Iniciada", "Trata": "MDUG0122A", "CIUDAD": "Ciudad Autonoma de Buenos Aires", "PAIS": "Argentina" }, "geometry": { "type": "Point", "coordinates": [ -58.418862791666697, -34.608751708333301 ] } },
{ "type": "Feature", "properties": { "N° EXPEDI": "12562198\/18", "NOMENC.PAR": "17-35-64-1", "TEL": "7\/12\/2018", "NAME": "AMENABAR 34\/72", "TIPO DE OB": "Micro Obra", "M2.": null, "ESTADO": "Obra NO Iniciada", "Trata": "MDUG0139A", "CIUDAD": "Ciudad Autonoma de Buenos Aires", "PAIS": "Argentina" }, "geometry": { "type": "Point", "coordinates": [ -58.439203887755099, -34.577323757142899 ] } },
{ "type": "Feature", "properties": { "N° EXPEDI": "16816168\/18", "NOMENC.PAR": "01-44-143A-014", "TEL": "5\/12\/2018", "NAME": "AV.COBO 1590", "TIPO DE OB": "Obra Menor", "M2.": "51", "ESTADO": "Obra NO Iniciada", "Trata": "MDUG0122A", "CIUDAD": "Ciudad Autonoma de Buenos Aires", "PAIS": "Argentina" }, "geometry": { "type": "Point", "coordinates": [ -58.437459306122399, -34.642892795918399 ] } },
{ "type": "Feature", "properties": { "N° EXPEDI": "31706034\/18", "NOMENC.PAR": "16-43-73-02", "TEL": "5\/12\/2018", "NAME": "CORREA 3212\/16", "TIPO DE OB": "Obra Media", "M2.": "865", "ESTADO": "Obra NO Iniciada", "Trata": "MDUG0105A", "CIUDAD": "Ciudad Autonoma de Buenos Aires", "PAIS": "Argentina" }, "geometry": { "type": "Point", "coordinates": [ -58.480025204081599, -34.546625918367297 ] } },
{ "type": "Feature", "properties": { "N° EXPEDI": "29207327\/17", "NOMENC.PAR": "15-67-39-28", "TEL": "5\/12\/2018", "NAME": "TERRADA 1268\/70", "TIPO DE OB": "Obra Media", "M2.": "870", "ESTADO": "Obra NO Iniciada", "Trata": "MDUG0139A", "CIUDAD": "Ciudad Autonoma de Buenos Aires", "PAIS": "Argentina" }, "geometry": { "type": "Point", "coordinates": [ -58.474393183673499, -34.618214102040803 ] } },
{ "type": "Feature", "properties": { "N° EXPEDI": "16850156\/17", "NOMENC.PAR": "16-29-66-96", "TEL": "4\/12\/2018", "NAME": "GRECIA 3641\/45", "TIPO DE OB": "Obra Menor", "M2.": "197", "ESTADO": "Obra NO Iniciada", "Trata": "MDUG0122A", "CIUDAD": "Ciudad Autonoma de Buenos Aires", "PAIS": "Argentina" }, "geometry": { "type": "Point", "coordinates": [ -58.463420812244898, -34.546047946938799 ] } },
{ "type": "Feature", "properties": { "N° EXPEDI": "26398984\/18", "NOMENC.PAR": "09-13-18-14", "TEL": "4\/12\/2018", "NAME": "ANCHORENA 884\/88", "TIPO DE OB": "Obra Mayor", "M2.": "8.330", "ESTADO": "Obra NO Iniciada", "Trata": "MDUG0105A", "CIUDAD": "Ciudad Autonoma de Buenos Aires", "PAIS": "Argentina" }, "geometry": { "type": "Point", "coordinates": [ -58.408373987755098, -34.598434883673498 ] } },
{ "type": "Feature", "properties": { "N° EXPEDI": "27705452\/18", "NOMENC.PAR": "17-35-16-30b\/33", "TEL": "4\/12\/2018", "NAME": "HUMBOLDT 1650\/84", "TIPO DE OB": "Obra Mayor", "M2.": "11.870", "ESTADO": "Obra NO Iniciada", "Trata": "MDUG0139A", "CIUDAD": "Ciudad Autonoma de Buenos Aires", "PAIS": "Argentina" }, "geometry": { "type": "Point", "coordinates": [ -58.435896020408201, -34.585175693877602 ] } },
{ "type": "Feature", "properties": { "N° EXPEDI": "31980429\/18", "NOMENC.PAR": "16-51-67-32", "TEL": "3\/12\/2018", "NAME": "MONROE 4870", "TIPO DE OB": "Obra Menor", "M2.": "155", "ESTADO": "Obra NO Iniciada", "Trata": "MDUG0139A", "CIUDAD": "Ciudad Autonoma de Buenos Aires", "PAIS": "Argentina" }, "geometry": { "type": "Point", "coordinates": [ -58.4599229, -34.5583089 ] } },
{ "type": "Feature", "properties": { "N° EXPEDI": "29759718\/17", "NOMENC.PAR": "7-45-020-6", "TEL": "29\/11\/2018", "NAME": "ORTEGA 940", "TIPO DE OB": "Obra Menor", "M2.": "196", "ESTADO": "Obra NO Iniciada", "Trata": "MDUG0105A", "CIUDAD": "Ciudad Autonoma de Buenos Aires", "PAIS": "Argentina" }, "geometry": { "type": "Point", "coordinates": [ -58.444517122449, -34.614887795918399 ] } },
{ "type": "Feature", "properties": { "N° EXPEDI": "31107234\/18", "NOMENC.PAR": "01-74-050-031", "TEL": "29\/11\/2018", "NAME": "ZELADA 7091", "TIPO DE OB": "Obra Media", "M2.": "524", "ESTADO": "Obra NO Iniciada", "Trata": "MDUG0105A", "CIUDAD": "Ciudad Autonoma de Buenos Aires", "PAIS": "Argentina" }, "geometry": { "type": "Point", "coordinates": [ -58.513812673469403, -34.656425836734698 ] } },
{ "type": "Feature", "properties": { "N° EXPEDI": "17405546\/18", "NOMENC.PAR": "1-77-154-017", "TEL": "29\/11\/2018", "NAME": "CAMPANA 709\/11", "TIPO DE OB": "Obra Media", "M2.": "561", "ESTADO": "Obra NO Iniciada", "Trata": "MDUG0105A", "CIUDAD": "Ciudad Autonoma de Buenos Aires", "PAIS": "Argentina" }, "geometry": { "type": "Point", "coordinates": [ -58.478089646938798, -34.624296661224498 ] } },
{ "type": "Feature", "properties": { "N° EXPEDI": "27421272\/18", "NOMENC.PAR": "15-79-102-37", "TEL": "29\/11\/2018", "NAME": "CONCORDIA 1128", "TIPO DE OB": "Obra Media", "M2.": "993", "ESTADO": "Obra NO Iniciada", "Trata": "MDUG0110B", "CIUDAD": "Ciudad Autonoma de Buenos Aires", "PAIS": "Argentina" }, "geometry": { "type": "Point", "coordinates": [ -58.481979169387799, -34.621250495918403 ] } },
{ "type": "Feature", "properties": { "N° EXPEDI": "13365306\/17", "NOMENC.PAR": "1-44-14C-13", "TEL": "29\/11\/2018", "NAME": "VARELA 1156\/60", "TIPO DE OB": "Obra Media", "M2.": "1.262", "ESTADO": "Obra NO Iniciada", "Trata": "MDUG0105A", "CIUDAD": "Ciudad Autonoma de Buenos Aires", "PAIS": "Argentina" }, "geometry": { "type": "Point", "coordinates": [ -58.4649632, -34.6309008 ] } },
{ "type": "Feature", "properties": { "N° EXPEDI": "23854916\/16", "NOMENC.PAR": "15-47-136-02", "TEL": "29\/11\/2018", "NAME": "GURRUCHAGA 220\/56", "TIPO DE OB": "Obra Media", "M2.": "1.727", "ESTADO": "Obra NO Iniciada", "Trata": "MDUG0110B", "CIUDAD": "Ciudad Autonoma de Buenos Aires", "PAIS": "Argentina" }, "geometry": { "type": "Point", "coordinates": [ -58.4445611836735, -34.5994785918367 ] } },
{ "type": "Feature", "properties": { "N° EXPEDI": "26898770\/17", "NOMENC.PAR": "5-42-016-005", "TEL": "29\/11\/2018", "NAME": "DIRECTORIO 1740\/46", "TIPO DE OB": "Micro Obra", "M2.": null, "ESTADO": "Obra NO Iniciada", "Trata": "#N\/A", "CIUDAD": "Ciudad Autonoma de Buenos Aires", "PAIS": "Argentina" }, "geometry": { "type": "Point", "coordinates": [ -58.452261140816297, -34.630975053061199 ] } },
{ "type": "Feature", "properties": { "N° EXPEDI": "23459858\/18", "NOMENC.PAR": "16-25-12-11f", "TEL": "28\/11\/2018", "NAME": "CUBA 2220", "TIPO DE OB": "Obra Menor", "M2.": "58", "ESTADO": "Obra NO Iniciada", "Trata": "MDUG0122A", "CIUDAD": "Ciudad Autonoma de Buenos Aires", "PAIS": "Argentina" }, "geometry": { "type": "Point", "coordinates": [ -58.449826334981204, -34.53814025 ] } },
{ "type": "Feature", "properties": { "N° EXPEDI": "15607375\/18", "NOMENC.PAR": "15-93-10-29", "TEL": "28\/11\/2018", "NAME": "GANA 756", "TIPO DE OB": "Obra Menor", "M2.": "67", "ESTADO": "Obra NO Iniciada", "Trata": "MDUG0122A", "CIUDAD": "Ciudad Autonoma de Buenos Aires", "PAIS": "Argentina" }, "geometry": { "type": "Point", "coordinates": [ -58.5279682, -34.6297871 ] } },
{ "type": "Feature", "properties": { "N° EXPEDI": "17704253\/18", "NOMENC.PAR": "15-79-121B-9", "TEL": "18\/10\/2018", "NAME": "CAMARONES 3462\/68", "TIPO DE OB": "Obra Menor", "M2.": "253", "ESTADO": "Obra NO Iniciada", "Trata": "MDUG0110B", "CIUDAD": "Ciudad Autonoma de Buenos Aires", "PAIS": "Argentina" }, "geometry": { "type": "Point", "coordinates": [ -58.5013874, -34.6254965 ] } },
{ "type": "Feature", "properties": { "N° EXPEDI": "32289893\/18", "NOMENC.PAR": "15-85-34A-33", "TEL": "26\/2\/2019", "NAME": "CAMARONES 4907", "TIPO DE OB": "Obra Menor", "M2.": "133", "ESTADO": "Obra NO Iniciada", "Trata": "MDUG0122A", "CIUDAD": "Ciudad Autonoma de Buenos Aires", "PAIS": "Argentina" }, "geometry": { "type": "Point", "coordinates": [ -58.501791612244901, -34.625638326530598 ] } },
{ "type": "Feature", "properties": { "N° EXPEDI": "14130904\/16", "NOMENC.PAR": "15-67-115-38", "TEL": "28\/11\/2018", "NAME": "GAVILAN 2138\/40", "TIPO DE OB": "Obra Media", "M2.": "522", "ESTADO": "Obra NO Iniciada", "Trata": "MDUG0122A", "CIUDAD": "Ciudad Autonoma de Buenos Aires", "PAIS": "Argentina" }, "geometry": { "type": "Point", "coordinates": [ -58.4732406938775, -34.606547877551002 ] } },